[
    {
        "name": "12 de Diciembre",
        "zipcode": "45068",
        "sepomexId": "56561",
        "latitude": "20.6473115",
        "longitude": "-103.4605698"
    },
    {
        "name": "27 de Septiembre",
        "zipcode": "45180",
        "sepomexId": "56810",
        "latitude": "20.7270455",
        "longitude": "-103.3612558"
    },
    {
        "name": "Abadía",
        "zipcode": "45136",
        "sepomexId": "183378",
        "latitude": "20.7093843",
        "longitude": "-103.4252413"
    },
    {
        "name": "Agraria",
        "zipcode": "45160",
        "sepomexId": "56792",
        "latitude": "20.7122558",
        "longitude": "-103.3821956"
    },
    {
        "name": "Agrícola",
        "zipcode": "45236",
        "sepomexId": "56974",
        "latitude": "20.6166871",
        "longitude": "-103.4323929"
    },
    {
        "name": "Agua Blanca",
        "zipcode": "45235",
        "sepomexId": "56967",
        "latitude": "20.7499711",
        "longitude": "-103.3530306"
    },
    {
        "name": "Agua Blanca Industrial",
        "zipcode": "45235",
        "sepomexId": "56965",
        "latitude": "20.6025431",
        "longitude": "-103.4266138"
    },
    {
        "name": "Agua Blanca Sur",
        "zipcode": "45235",
        "sepomexId": "56964",
        "latitude": "20.5997284",
        "longitude": "-103.4345602"
    },
    {
        "name": "Agua Fría",
        "zipcode": "45186",
        "sepomexId": "56855",
        "latitude": "20.7507561",
        "longitude": "-103.352231"
    },
    {
        "name": "Alamedas de Tesistán",
        "zipcode": "45185",
        "sepomexId": "56847",
        "latitude": "20.7437173",
        "longitude": "-103.3720863"
    },
    {
        "name": "Álamos",
        "zipcode": "45012",
        "sepomexId": "56454",
        "latitude": "20.6818816",
        "longitude": "-103.4505631"
    },
    {
        "name": "Albaterra",
        "zipcode": "45200",
        "sepomexId": "56923",
        "latitude": "20.7166667",
        "longitude": "-103.4"
    },
    {
        "name": "Alianza de Cazadores Diana",
        "zipcode": "45221",
        "sepomexId": "183438",
        "latitude": "20.7243384",
        "longitude": "-103.5292316"
    },
    {
        "name": "Altabrisa",
        "zipcode": "45200",
        "sepomexId": "183426",
        "latitude": "20.7867459",
        "longitude": "-103.4835381"
    },
    {
        "name": "Altagracia",
        "zipcode": "45130",
        "sepomexId": "56647",
        "latitude": "20.7431908",
        "longitude": "-103.3926668"
    },
    {
        "name": "Altamira",
        "zipcode": "45160",
        "sepomexId": "56791",
        "latitude": "20.7128677",
        "longitude": "-103.3883338"
    },
    {
        "name": "Altaterra",
        "zipcode": "45134",
        "sepomexId": "183361",
        "latitude": "20.7776159",
        "longitude": "-103.4244693"
    },
    {
        "name": "Altaterra II",
        "zipcode": "45134",
        "sepomexId": "183362",
        "latitude": "20.7776159",
        "longitude": "-103.4244693"
    },
    {
        "name": "Altavista Residencial",
        "zipcode": "45133",
        "sepomexId": "138493",
        "latitude": "0",
        "longitude": "0"
    },
    {
        "name": "Altus Quintas",
        "zipcode": "45200",
        "sepomexId": "56945",
        "latitude": "20.7166667",
        "longitude": "-103.4"
    },
    {
        "name": "Alva",
        "zipcode": "45134",
        "sepomexId": "207774",
        "latitude": "20.7917905",
        "longitude": "-103.4239722"
    },
    {
        "name": "Alviento Residencial",
        "zipcode": "45200",
        "sepomexId": "183420",
        "latitude": "20.7890511",
        "longitude": "-103.4818872"
    },
    {
        "name": "Amaranto Residencial",
        "zipcode": "45200",
        "sepomexId": "56906",
        "latitude": "20.8100243",
        "longitude": "-103.4552294"
    },
    {
        "name": "Ampliación Santa Lucía",
        "zipcode": "45200",
        "sepomexId": "183397",
        "latitude": "20.8044449",
        "longitude": "-103.5009074"
    },
    {
        "name": "Arándanos Cañada Residencial",
        "zipcode": "45130",
        "sepomexId": "183335",
        "latitude": "20.7597748",
        "longitude": "-103.4044054"
    },
    {
        "name": "Arauca",
        "zipcode": "45019",
        "sepomexId": "183303",
        "latitude": "20.7098135",
        "longitude": "-103.3813546"
    },
    {
        "name": "Arauca II",
        "zipcode": "45019",
        "sepomexId": "183304",
        "latitude": "20.7344898",
        "longitude": "-103.4663119"
    },
    {
        "name": "Arboledas 1a Secc",
        "zipcode": "45070",
        "sepomexId": "56569",
        "latitude": "20.7298428",
        "longitude": "-103.3908009"
    },
    {
        "name": "Arboledas 2a Secc",
        "zipcode": "45070",
        "sepomexId": "56566",
        "latitude": "20.7188013",
        "longitude": "-103.3691411"
    },
    {
        "name": "Arboledas Residencial",
        "zipcode": "45236",
        "sepomexId": "183442",
        "latitude": "20.6193793",
        "longitude": "-103.4352826"
    },
    {
        "name": "Arboreto Residencial",
        "zipcode": "45200",
        "sepomexId": "183427",
        "latitude": "20.7846638",
        "longitude": "-103.4679048"
    },
    {
        "name": "Arcos de Guadalupe",
        "zipcode": "45037",
        "sepomexId": "56506",
        "latitude": "20.6631759",
        "longitude": "-103.4352826"
    },
    {
        "name": "Arcos de Zapopan 1a. Sección",
        "zipcode": "45130",
        "sepomexId": "56642",
        "latitude": "20.7298428",
        "longitude": "-103.3908009"
    },
    {
        "name": "Arcos de Zapopan 2a. Sección",
        "zipcode": "45130",
        "sepomexId": "56648",
        "latitude": "20.7188013",
        "longitude": "-103.3691411"
    },
    {
        "name": "Arenales Tapatíos",
        "zipcode": "45066",
        "sepomexId": "56553",
        "latitude": "20.6348464",
        "longitude": "-103.4612924"
    },
    {
        "name": "Argenta Mirador Residencial",
        "zipcode": "45135",
        "sepomexId": "183370",
        "latitude": "20.7707074",
        "longitude": "-103.3955556"
    },
    {
        "name": "Armonía Hábitat",
        "zipcode": "45138",
        "sepomexId": "183383",
        "latitude": "20.7460449",
        "longitude": "-103.4443132"
    },
    {
        "name": "Arrayanes",
        "zipcode": "45066",
        "sepomexId": "56548",
        "latitude": "20.7328501",
        "longitude": "-103.4082841"
    },
    {
        "name": "Arroyo Hondo",
        "zipcode": "45186",
        "sepomexId": "56853",
        "latitude": "20.7408737",
        "longitude": "-103.3478994"
    },
    {
        "name": "Arroyo Hondo 2a Secc",
        "zipcode": "45186",
        "sepomexId": "56852",
        "latitude": "20.739867",
        "longitude": "-103.3421241"
    },
    {
        "name": "Atemajac Del Valle",
        "zipcode": "45190",
        "sepomexId": "56889",
        "latitude": "20.7189606",
        "longitude": "-103.3572848"
    },
    {
        "name": "Atlas Chapalita",
        "zipcode": "45030",
        "sepomexId": "56485",
        "latitude": "20.6573414",
        "longitude": "-103.4305869"
    },
    {
        "name": "Atlas Colomos",
        "zipcode": "45118",
        "sepomexId": "56619",
        "latitude": "20.71465",
        "longitude": "-103.4027777"
    },
    {
        "name": "Aves del Paraíso",
        "zipcode": "45158",
        "sepomexId": "56777",
        "latitude": "20.7321163",
        "longitude": "-103.4373901"
    },
    {
        "name": "Ayamonte",
        "zipcode": "45012",
        "sepomexId": "56453",
        "latitude": "20.6752633",
        "longitude": "-103.4670731"
    },
    {
        "name": "Azaleas",
        "zipcode": "45239",
        "sepomexId": "56988",
        "latitude": "20.6075773",
        "longitude": "-103.4461194"
    },
    {
        "name": "Azaleas Del Valle",
        "zipcode": "45190",
        "sepomexId": "56899",
        "latitude": "20.7450617",
        "longitude": "-103.4275955"
    },
    {
        "name": "Azaleas Residencial",
        "zipcode": "45239",
        "sepomexId": "183451",
        "latitude": "20.6091374",
        "longitude": "-103.4478594"
    },
    {
        "name": "Balcones de La Cantera",
        "zipcode": "45186",
        "sepomexId": "56851",
        "latitude": "20.7434541",
        "longitude": "-103.352231"
    },
    {
        "name": "Balcones Del Sol",
        "zipcode": "45068",
        "sepomexId": "56559",
        "latitude": "20.6504593",
        "longitude": "-103.4576796"
    },
    {
        "name": "Base Aérea Militar No. 5",
        "zipcode": "45138",
        "sepomexId": "183390",
        "latitude": "20.7509211",
        "longitude": "-103.4430775"
    },
    {
        "name": "Belenes Norte",
        "zipcode": "45145",
        "sepomexId": "56756",
        "latitude": "20.7368943",
        "longitude": "-103.3984444"
    },
    {
        "name": "Belenes U de G",
        "zipcode": "45150",
        "sepomexId": "56763",
        "latitude": "20.7312153",
        "longitude": "-103.3342905"
    },
    {
        "name": "Belissimo Habitat Residencial",
        "zipcode": "45200",
        "sepomexId": "183425",
        "latitude": "20.7785223",
        "longitude": "-103.4650783"
    },
    {
        "name": "Bellavista",
        "zipcode": "45010",
        "sepomexId": "56447",
        "latitude": "20.655586",
        "longitude": "-103.4435907"
    },
    {
        "name": "Benito Juárez",
        "zipcode": "45199",
        "sepomexId": "56902",
        "latitude": "20.7320046",
        "longitude": "-103.3399585"
    },
    {
        "name": "Benito Juárez Norte",
        "zipcode": "45199",
        "sepomexId": "56903",
        "latitude": "20.7387467",
        "longitude": "-103.3377928"
    },
    {
        "name": "Bosque de Los Encinos",
        "zipcode": "45134",
        "sepomexId": "56689",
        "latitude": "20.7494232",
        "longitude": "-103.3760563"
    },
    {
        "name": "Bosque Escondido",
        "zipcode": "45180",
        "sepomexId": "56824",
        "latitude": "20.7355316",
        "longitude": "-103.3554799"
    },
    {
        "name": "Bosque Valdepeñas",
        "zipcode": "45130",
        "sepomexId": "56652",
        "latitude": "20.7473835",
        "longitude": "-103.3982039"
    },
    {
        "name": "Bosques de la Primavera",
        "zipcode": "45133",
        "sepomexId": "56672",
        "latitude": "20.7586384",
        "longitude": "-103.3619822"
    },
    {
        "name": "Bosques de San Gonzalo",
        "zipcode": "45134",
        "sepomexId": "56675",
        "latitude": "20.7060443",
        "longitude": "-103.4109175"
    },
    {
        "name": "Bosques de San Isidro",
        "zipcode": "45133",
        "sepomexId": "56667",
        "latitude": "20.7267024",
        "longitude": "-103.3791128"
    },
    {
        "name": "Bosques de San Isidro (Las Cañadas)",
        "zipcode": "45133",
        "sepomexId": "183355",
        "latitude": "20.7822538",
        "longitude": "-103.3665267"
    },
    {
        "name": "Bosques de Zapopan",
        "zipcode": "45130",
        "sepomexId": "56657",
        "latitude": "20.7409015",
        "longitude": "-103.337685"
    },
    {
        "name": "Bosques Del Centinela I",
        "zipcode": "45187",
        "sepomexId": "56865",
        "latitude": "20.7529771",
        "longitude": "-103.3796682"
    },
    {
        "name": "Bosques Del Centinela II",
        "zipcode": "45187",
        "sepomexId": "56860",
        "latitude": "20.7182382",
        "longitude": "-103.3488601"
    },
    {
        "name": "Bosques del Centinela III",
        "zipcode": "45187",
        "sepomexId": "56859",
        "latitude": "20.7187777",
        "longitude": "-103.3487358"
    },
    {
        "name": "Bosques Vallarta",
        "zipcode": "45222",
        "sepomexId": "139176",
        "latitude": "20.7191644",
        "longitude": "-103.4837867"
    },
    {
        "name": "Bugambilias",
        "zipcode": "45238",
        "sepomexId": "56982",
        "latitude": "20.6051799",
        "longitude": "-103.4485832"
    },
    {
        "name": "Bugambilias Country",
        "zipcode": "45237",
        "sepomexId": "183444",
        "latitude": "20.6123967",
        "longitude": "-103.4544282"
    },
    {
        "name": "Callejón del Bosque",
        "zipcode": "45200",
        "sepomexId": "183419",
        "latitude": "20.782775",
        "longitude": "-103.4715256"
    },
    {
        "name": "Callejón del Parque",
        "zipcode": "45117",
        "sepomexId": "56614",
        "latitude": "20.6923234",
        "longitude": "-103.4313093"
    },
    {
        "name": "Camichines Vallarta",
        "zipcode": "45020",
        "sepomexId": "56476",
        "latitude": "20.6787902",
        "longitude": "-103.4316705"
    },
    {
        "name": "Camino Real",
        "zipcode": "45040",
        "sepomexId": "56511",
        "latitude": "20.6737577",
        "longitude": "-103.4121672"
    },
    {
        "name": "Campestre Las Palomas",
        "zipcode": "45200",
        "sepomexId": "183409",
        "latitude": "20.8181716",
        "longitude": "-103.4531289"
    },
    {
        "name": "Campestre los Pinos",
        "zipcode": "45239",
        "sepomexId": "56986",
        "latitude": "24.0025094",
        "longitude": "-104.6553641"
    },
    {
        "name": "Campestre Los Robles",
        "zipcode": "45134",
        "sepomexId": "183357",
        "latitude": "20.7533192",
        "longitude": "-103.4202559"
    },
    {
        "name": "Campo Lago",
        "zipcode": "45222",
        "sepomexId": "56950",
        "latitude": "20.5683173",
        "longitude": "-103.4720375"
    },
    {
        "name": "Campo Real",
        "zipcode": "45134",
        "sepomexId": "56676",
        "latitude": "20.7469187",
        "longitude": "-103.3983205"
    },
    {
        "name": "Cañadas de San Lorenzo",
        "zipcode": "45130",
        "sepomexId": "56658",
        "latitude": "20.6532106",
        "longitude": "-103.4369914"
    },
    {
        "name": "Canteras",
        "zipcode": "45134",
        "sepomexId": "183364",
        "latitude": "20.76045",
        "longitude": "-103.4237244"
    },
    {
        "name": "Canteras del Centinela",
        "zipcode": "45133",
        "sepomexId": "183337",
        "latitude": "20.7617339",
        "longitude": "-103.384362"
    },
    {
        "name": "Carlos Rivera",
        "zipcode": "45065",
        "sepomexId": "56543",
        "latitude": "20.6111935",
        "longitude": "-103.3734544"
    },
    {
        "name": "Casa Grande",
        "zipcode": "45130",
        "sepomexId": "56639",
        "latitude": "20.7477292",
        "longitude": "-103.3943411"
    },
    {
        "name": "Centro de Investigación y de Estudios Avanzados",
        "zipcode": "45015",
        "sepomexId": "56458",
        "latitude": "20.7166667",
        "longitude": "-103.4"
    },
    {
        "name": "Chapalita de Occidente",
        "zipcode": "45030",
        "sepomexId": "56487",
        "latitude": "20.6588065",
        "longitude": "-103.4258915"
    },
    {
        "name": "Chapalita Inn",
        "zipcode": "45010",
        "sepomexId": "56437",
        "latitude": "20.6573253",
        "longitude": "-103.4446744"
    },
    {
        "name": "Chapalita las Fuentes",
        "zipcode": "45030",
        "sepomexId": "56488",
        "latitude": "20.6557727",
        "longitude": "-103.4273362"
    },
    {
        "name": "Chapalita Oriente",
        "zipcode": "45040",
        "sepomexId": "56515",
        "latitude": "20.6647792",
        "longitude": "-103.4056667"
    },
    {
        "name": "Chapalita Sur",
        "zipcode": "45040",
        "sepomexId": "56512",
        "latitude": "20.6606263",
        "longitude": "-103.4027777"
    },
    {
        "name": "Ciudad Bugambilia",
        "zipcode": "45237",
        "sepomexId": "56980",
        "latitude": "20.7195367",
        "longitude": "-103.4008447"
    },
    {
        "name": "Ciudad de los Niños",
        "zipcode": "45040",
        "sepomexId": "56513",
        "latitude": "20.6620775",
        "longitude": "-103.4121672"
    },
    {
        "name": "Ciudad Del Sol",
        "zipcode": "45050",
        "sepomexId": "56521",
        "latitude": "20.653772",
        "longitude": "-103.406389"
    },
    {
        "name": "Ciudad Granja",
        "zipcode": "45010",
        "sepomexId": "56444",
        "latitude": "20.6782083",
        "longitude": "-103.4482868"
    },
    {
        "name": "Ciudad Judicial Federal",
        "zipcode": "45012",
        "sepomexId": "56452",
        "latitude": "20.7166667",
        "longitude": "-103.4"
    },
    {
        "name": "Ciudad Tepeyac",
        "zipcode": "45036",
        "sepomexId": "56496",
        "latitude": "20.7256777",
        "longitude": "-103.3832788"
    },
    {
        "name": "Colegio Del Aire",
        "zipcode": "45138",
        "sepomexId": "56725",
        "latitude": "20.7515588",
        "longitude": "-103.4369081"
    },
    {
        "name": "Colina de los Robles",
        "zipcode": "45134",
        "sepomexId": "56686",
        "latitude": "20.7528178",
        "longitude": "-103.4203283"
    },
    {
        "name": "Colinas de Atemajac",
        "zipcode": "45170",
        "sepomexId": "56800",
        "latitude": "20.7185067",
        "longitude": "-103.3630608"
    },
    {
        "name": "Colinas de La Primavera",
        "zipcode": "45066",
        "sepomexId": "56550",
        "latitude": "20.7586384",
        "longitude": "-103.3619822"
    },
    {
        "name": "Colinas de Las Águilas",
        "zipcode": "45080",
        "sepomexId": "56581",
        "latitude": "20.6220981",
        "longitude": "-103.4100003"
    },
    {
        "name": "Colinas de los Belenes",
        "zipcode": "45180",
        "sepomexId": "56839",
        "latitude": "20.7506163",
        "longitude": "-103.3733946"
    },
    {
        "name": "Colinas de San Isidro",
        "zipcode": "45133",
        "sepomexId": "183344",
        "latitude": "20.7682214",
        "longitude": "-103.3830385"
    },
    {
        "name": "Colinas de San Javier",
        "zipcode": "45110",
        "sepomexId": "56607",
        "latitude": "20.6978017",
        "longitude": "-103.4035"
    },
    {
        "name": "Colinas de San Miguel",
        "zipcode": "45134",
        "sepomexId": "183365",
        "latitude": "20.7833413",
        "longitude": "-103.4273879"
    },
    {
        "name": "Colinas de Tabachines",
        "zipcode": "45185",
        "sepomexId": "56850",
        "latitude": "20.7441804",
        "longitude": "-103.3569238"
    },
    {
        "name": "Colinas Del Centinela",
        "zipcode": "45135",
        "sepomexId": "56700",
        "latitude": "20.7651268",
        "longitude": "-103.3669039"
    },
    {
        "name": "Colinas Del Rey",
        "zipcode": "45130",
        "sepomexId": "56649",
        "latitude": "20.7510402",
        "longitude": "-103.4042222"
    },
    {
        "name": "Colinas del Río Blanco",
        "zipcode": "45134",
        "sepomexId": "56696",
        "latitude": "20.7840755",
        "longitude": "-103.4171502"
    },
    {
        "name": "Colinas Virreyes",
        "zipcode": "45115",
        "sepomexId": "183325",
        "latitude": "20.6989386",
        "longitude": "-103.4399784"
    },
    {
        "name": "Colli C.T.M.",
        "zipcode": "45056",
        "sepomexId": "56530",
        "latitude": "20.6485868",
        "longitude": "-103.4258915"
    },
    {
        "name": "Colli Sitio",
        "zipcode": "45036",
        "sepomexId": "56501",
        "latitude": "20.6536811",
        "longitude": "-103.4399784"
    },
    {
        "name": "Colomos Patria",
        "zipcode": "45110",
        "sepomexId": "56606",
        "latitude": "20.7105025",
        "longitude": "-103.384272"
    },
    {
        "name": "Conjunto Habitacional Laureles",
        "zipcode": "45157",
        "sepomexId": "56772",
        "latitude": "20.7330311",
        "longitude": "-103.3872506"
    },
    {
        "name": "Conjunto Ritz",
        "zipcode": "45190",
        "sepomexId": "56890",
        "latitude": "20.7166667",
        "longitude": "-103.4"
    },
    {
        "name": "Conjunto Seattle",
        "zipcode": "45170",
        "sepomexId": "56803",
        "latitude": "20.7173709",
        "longitude": "-103.3775019"
    },
    {
        "name": "Conjunto Zapopan",
        "zipcode": "45158",
        "sepomexId": "56775",
        "latitude": "20.7580313",
        "longitude": "-103.3803903"
    },
    {
        "name": "Constitución",
        "zipcode": "45180",
        "sepomexId": "56831",
        "latitude": "20.729735",
        "longitude": "-103.368837"
    },
    {
        "name": "Constituyentes",
        "zipcode": "45184",
        "sepomexId": "56845",
        "latitude": "20.7255729",
        "longitude": "-103.3753356"
    },
    {
        "name": "Coronilla Del Ocote",
        "zipcode": "45189",
        "sepomexId": "56880",
        "latitude": "20.7187777",
        "longitude": "-103.3487358"
    },
    {
        "name": "Coto Del Rey",
        "zipcode": "45010",
        "sepomexId": "56443",
        "latitude": "20.7358251",
        "longitude": "-103.4196116"
    },
    {
        "name": "Coto La Joya",
        "zipcode": "45239",
        "sepomexId": "56984",
        "latitude": "20.6095088",
        "longitude": "-103.4508913"
    },
    {
        "name": "Coto Miraflores",
        "zipcode": "45134",
        "sepomexId": "56680",
        "latitude": "20.6792126",
        "longitude": "-103.3931782"
    },
    {
        "name": "Coto Residencial 2000",
        "zipcode": "45037",
        "sepomexId": "56505",
        "latitude": "20.7067107",
        "longitude": "-103.4055301"
    },
    {
        "name": "Coto San Francisco",
        "zipcode": "45200",
        "sepomexId": "183396",
        "latitude": "20.6740602",
        "longitude": "-103.4507796"
    },
    {
        "name": "Cristal",
        "zipcode": "45237",
        "sepomexId": "183443",
        "latitude": "20.6079814",
        "longitude": "-103.4541434"
    },
    {
        "name": "Crucero de La Mesa",
        "zipcode": "45189",
        "sepomexId": "56882",
        "latitude": "20.7639079",
        "longitude": "-103.342846"
    },
    {
        "name": "CUCEA Universidad de Guadalajara",
        "zipcode": "45180",
        "sepomexId": "56837",
        "latitude": "20.6247977",
        "longitude": "-103.4388188"
    },
    {
        "name": "Cumbres",
        "zipcode": "45010",
        "sepomexId": "56439",
        "latitude": "20.7211365",
        "longitude": "-103.4243917"
    },
    {
        "name": "Del Bosque",
        "zipcode": "45237",
        "sepomexId": "56979",
        "latitude": "20.6103942",
        "longitude": "-103.45396"
    },
    {
        "name": "Del Federalismo",
        "zipcode": "45180",
        "sepomexId": "56817",
        "latitude": "20.7432579",
        "longitude": "-103.3475338"
    },
    {
        "name": "Diana Nature Residencial",
        "zipcode": "45221",
        "sepomexId": "56946",
        "latitude": "20.7166667",
        "longitude": "-103.4"
    },
    {
        "name": "División del Norte",
        "zipcode": "45180",
        "sepomexId": "56829",
        "latitude": "20.7331178",
        "longitude": "-103.353675"
    },
    {
        "name": "Don Bosco Vallarta",
        "zipcode": "45049",
        "sepomexId": "56519",
        "latitude": "20.6734258",
        "longitude": "-103.4071112"
    },
    {
        "name": "Ébano",
        "zipcode": "45239",
        "sepomexId": "183448",
        "latitude": "20.6122151",
        "longitude": "-103.4488584"
    },
    {
        "name": "Ecológica Seattle",
        "zipcode": "45150",
        "sepomexId": "56764",
        "latitude": "20.7173709",
        "longitude": "-103.3775019"
    },
    {
        "name": "Ejido Copalita",
        "zipcode": "45200",
        "sepomexId": "56917",
        "latitude": "20.8288046",
        "longitude": "-103.4484665"
    },
    {
        "name": "Ejido de Zoquiapan",
        "zipcode": "45170",
        "sepomexId": "56804",
        "latitude": "20.7166667",
        "longitude": "-103.4"
    },
    {
        "name": "El Alcazar Oriente",
        "zipcode": "45110",
        "sepomexId": "183323",
        "latitude": "20.6950854",
        "longitude": "-103.4259233"
    },
    {
        "name": "El Alcazar Poniente",
        "zipcode": "45110",
        "sepomexId": "183322",
        "latitude": "20.6950854",
        "longitude": "-103.4259233"
    },
    {
        "name": "El Bajío",
        "zipcode": "45017",
        "sepomexId": "56463",
        "latitude": "20.7278636",
        "longitude": "-103.348075"
    },
    {
        "name": "El Batan",
        "zipcode": "45190",
        "sepomexId": "56885",
        "latitude": "20.7221151",
        "longitude": "-103.3450117"
    },
    {
        "name": "El Borrego",
        "zipcode": "45035",
        "sepomexId": "56495",
        "latitude": "20.6863407",
        "longitude": "-103.4491188"
    },
    {
        "name": "El Bosque",
        "zipcode": "45187",
        "sepomexId": "56864",
        "latitude": "20.676279",
        "longitude": "-103.4634601"
    },
    {
        "name": "El Briceño",
        "zipcode": "45236",
        "sepomexId": "56977",
        "latitude": "20.6078019",
        "longitude": "-103.4255344"
    },
    {
        "name": "El Campanario",
        "zipcode": "45234",
        "sepomexId": "56962",
        "latitude": "20.5931024",
        "longitude": "-103.4352826"
    },
    {
        "name": "El Campestre",
        "zipcode": "El Campest",
        "sepomexId": "207108",
        "latitude": "20.7390865",
        "longitude": "103.5429575"
    },
    {
        "name": "El Capullo",
        "zipcode": "45150",
        "sepomexId": "56767",
        "latitude": "20.72051",
        "longitude": "-103.3840009"
    },
    {
        "name": "El Carmen Hábitat",
        "zipcode": "45030",
        "sepomexId": "183307",
        "latitude": "20.6625544",
        "longitude": "-103.4385335"
    },
    {
        "name": "El Carrizal",
        "zipcode": "45190",
        "sepomexId": "56886",
        "latitude": "20.7179936",
        "longitude": "-103.3668619"
    },
    {
        "name": "El Centinela",
        "zipcode": "45133",
        "sepomexId": "56665",
        "latitude": "20.7504052",
        "longitude": "-103.3793529"
    },
    {
        "name": "El Colli 1a Secc",
        "zipcode": "45010",
        "sepomexId": "56442",
        "latitude": "20.6881988",
        "longitude": "-103.4082205"
    },
    {
        "name": "El Colli 2a Secc",
        "zipcode": "45010",
        "sepomexId": "56446",
        "latitude": "20.6786008",
        "longitude": "-103.398787"
    },
    {
        "name": "El Colli Ejidal",
        "zipcode": "45070",
        "sepomexId": "56564",
        "latitude": "20.6471276",
        "longitude": "-103.4344972"
    },
    {
        "name": "El Colli INFONAVIT",
        "zipcode": "45057",
        "sepomexId": "56531",
        "latitude": "20.6474615",
        "longitude": "-103.4365802"
    },
    {
        "name": "El Colli Primavera",
        "zipcode": "45057",
        "sepomexId": "56532",
        "latitude": "20.6495914",
        "longitude": "-103.4316705"
    },
    {
        "name": "El Colli Urbano 1a. Sección",
        "zipcode": "45070",
        "sepomexId": "56567",
        "latitude": "20.63104",
        "longitude": "-103.4433116"
    },
    {
        "name": "El Colli Urbano 2a. sección",
        "zipcode": "45070",
        "sepomexId": "56570",
        "latitude": "20.6786008",
        "longitude": "-103.398787"
    },
    {
        "name": "El Fortín",
        "zipcode": "45066",
        "sepomexId": "56549",
        "latitude": "20.6283228",
        "longitude": "-103.4699635"
    },
    {
        "name": "El Fresno",
        "zipcode": "45138",
        "sepomexId": "56722",
        "latitude": "20.5907485",
        "longitude": "-103.4218876"
    },
    {
        "name": "El Garabato",
        "zipcode": "45236",
        "sepomexId": "56969",
        "latitude": "20.6078019",
        "longitude": "-103.4255344"
    },
    {
        "name": "El Húmedo de Nextipac",
        "zipcode": "45220",
        "sepomexId": "56942",
        "latitude": "20.7476992",
        "longitude": "-103.4402787"
    },
    {
        "name": "El Mante",
        "zipcode": "45235",
        "sepomexId": "56966",
        "latitude": "20.6086098",
        "longitude": "-103.4237244"
    },
    {
        "name": "El Mesón de Cópala",
        "zipcode": "45200",
        "sepomexId": "183412",
        "latitude": "20.8370808",
        "longitude": "-103.425672"
    },
    {
        "name": "El Olivo",
        "zipcode": "45138",
        "sepomexId": "183392",
        "latitude": "20.7557561",
        "longitude": "-103.4409932"
    },
    {
        "name": "El Olivo Coto Residencial",
        "zipcode": "45138",
        "sepomexId": "56734",
        "latitude": "20.5930375",
        "longitude": "-103.3934653"
    },
    {
        "name": "El Paraíso",
        "zipcode": "45157",
        "sepomexId": "56774",
        "latitude": "20.7256822",
        "longitude": "-103.378585"
    },
    {
        "name": "El Prado",
        "zipcode": "45118",
        "sepomexId": "56622",
        "latitude": "20.7126825",
        "longitude": "-103.4045833"
    },
    {
        "name": "El Quemado",
        "zipcode": "45200",
        "sepomexId": "56904",
        "latitude": "20.6962636",
        "longitude": "-103.2981272"
    },
    {
        "name": "El Real",
        "zipcode": "45138",
        "sepomexId": "183387",
        "latitude": "20.7363245",
        "longitude": "-103.4208353"
    },
    {
        "name": "El Rehilete",
        "zipcode": "45068",
        "sepomexId": "183320",
        "latitude": "20.6442778",
        "longitude": "-103.462015"
    },
    {
        "name": "El Rincón",
        "zipcode": "45117",
        "sepomexId": "56617",
        "latitude": "20.6905606",
        "longitude": "-103.4322816"
    },
    {
        "name": "El Saucito",
        "zipcode": "45236",
        "sepomexId": "56975",
        "latitude": "20.6174077",
        "longitude": "-103.4582188"
    },
    {
        "name": "El Secreto",
        "zipcode": "45138",
        "sepomexId": "183388",
        "latitude": "20.7463542",
        "longitude": "-103.4428996"
    },
    {
        "name": "El Tigre",
        "zipcode": "45134",
        "sepomexId": "56690",
        "latitude": "20.7661889",
        "longitude": "-103.4157787"
    },
    {
        "name": "El Tigre 2",
        "zipcode": "45134",
        "sepomexId": "56678",
        "latitude": "20.7409484",
        "longitude": "-103.4244761"
    },
    {
        "name": "El Tizate",
        "zipcode": "45066",
        "sepomexId": "56546",
        "latitude": "20.6358373",
        "longitude": "-103.4764672"
    },
    {
        "name": "El Triángulo",
        "zipcode": "45138",
        "sepomexId": "56714",
        "latitude": "20.7528135",
        "longitude": "-103.4429586"
    },
    {
        "name": "El Vigía",
        "zipcode": "45140",
        "sepomexId": "56748",
        "latitude": "20.7337563",
        "longitude": "-103.3919446"
    },
    {
        "name": "El Zapote",
        "zipcode": "45050",
        "sepomexId": "56523",
        "latitude": "20.6547728",
        "longitude": "-103.4168622"
    },
    {
        "name": "El Zapote",
        "zipcode": "45134",
        "sepomexId": "183366",
        "latitude": "20.7595911",
        "longitude": "-103.4273502"
    },
    {
        "name": "Emiliano Zapata",
        "zipcode": "45185",
        "sepomexId": "56848",
        "latitude": "20.7498473",
        "longitude": "-103.3637828"
    },
    {
        "name": "Entrelomas Residencial",
        "zipcode": "45115",
        "sepomexId": "183326",
        "latitude": "20.699617",
        "longitude": "-103.4382987"
    },
    {
        "name": "Esencia Residencial",
        "zipcode": "45138",
        "sepomexId": "56728",
        "latitude": "20.7166667",
        "longitude": "-103.4"
    },
    {
        "name": "Estrada",
        "zipcode": "45200",
        "sepomexId": "56907",
        "latitude": "20.7921519",
        "longitude": "-103.4750219"
    },
    {
        "name": "Eucalipto Vallarta",
        "zipcode": "45020",
        "sepomexId": "56478",
        "latitude": "20.6762121",
        "longitude": "-103.4273362"
    },
    {
        "name": "Ex Hacienda de La Mora",
        "zipcode": "45138",
        "sepomexId": "56743",
        "latitude": "20.7315846",
        "longitude": "-103.4240855"
    },
    {
        "name": "EXITMEX",
        "zipcode": "45010",
        "sepomexId": "56449",
        "latitude": "20.7166667",
        "longitude": "-103.4"
    },
    {
        "name": "Flores del Valle",
        "zipcode": "45138",
        "sepomexId": "56732",
        "latitude": "20.6273388",
        "longitude": "-103.4544478"
    },
    {
        "name": "Forét Residencial",
        "zipcode": "45066",
        "sepomexId": "183315",
        "latitude": "20.6285897",
        "longitude": "-103.4804419"
    },
    {
        "name": "Fraccionamiento Colinas Virreyes",
        "zipcode": "45115",
        "sepomexId": "139069",
        "latitude": "20.6993292",
        "longitude": "-103.442073"
    },
    {
        "name": "Fraccionamiento Entrelomas Residencial",
        "zipcode": "45115",
        "sepomexId": "139066",
        "latitude": "20.6993481",
        "longitude": "-103.4407221"
    },
    {
        "name": "Fraccionamiento Los Castaños",
        "zipcode": "45115",
        "sepomexId": "139058",
        "latitude": "20.6975528",
        "longitude": "-103.4460586"
    },
    {
        "name": "Fraccionamiento Puerta las Lomas",
        "zipcode": "45115",
        "sepomexId": "139070",
        "latitude": "20.7049179",
        "longitude": "-103.4388202"
    },
    {
        "name": "Fraccionamiento Residencial Parque Virreyes",
        "zipcode": "45115",
        "sepomexId": "139063",
        "latitude": "20.6999093",
        "longitude": "-103.4422539"
    },
    {
        "name": "Fraccionamiento Villa Verona",
        "zipcode": "45115",
        "sepomexId": "139059",
        "latitude": "20.7018997",
        "longitude": "-103.4472656"
    },
    {
        "name": "Fraccionamiento Vistas del Tule I",
        "zipcode": "45115",
        "sepomexId": "139056",
        "latitude": "20.6947362",
        "longitude": "-103.4503212"
    },
    {
        "name": "Fraccionamiento Vistas del Tule II",
        "zipcode": "45115",
        "sepomexId": "139043",
        "latitude": "20.694843",
        "longitude": "-103.4452593"
    },
    {
        "name": "Francisco Sarabia",
        "zipcode": "45236",
        "sepomexId": "56970",
        "latitude": "20.6108477",
        "longitude": "-103.4323929"
    },
    {
        "name": "Francisco Villa",
        "zipcode": "45130",
        "sepomexId": "56660",
        "latitude": "20.7389187",
        "longitude": "-103.3378449"
    },
    {
        "name": "Fuentecillas",
        "zipcode": "45200",
        "sepomexId": "183413",
        "latitude": "20.8528765",
        "longitude": "-103.4355393"
    },
    {
        "name": "Girasoles Acueducto",
        "zipcode": "45138",
        "sepomexId": "56740",
        "latitude": "20.709957",
        "longitude": "-103.411324"
    },
    {
        "name": "Girasoles Elite",
        "zipcode": "45138",
        "sepomexId": "56733",
        "latitude": "20.7407958",
        "longitude": "-103.423002"
    },
    {
        "name": "Glorias Del Colli",
        "zipcode": "45010",
        "sepomexId": "56440",
        "latitude": "20.6588877",
        "longitude": "-103.4526219"
    },
    {
        "name": "Gonzalez Ortega",
        "zipcode": "45190",
        "sepomexId": "56896",
        "latitude": "20.7289635",
        "longitude": "-103.3507872"
    },
    {
        "name": "Guadalajara Technology Park",
        "zipcode": "45222",
        "sepomexId": "183439",
        "latitude": "20.7262374",
        "longitude": "-103.4912331"
    },
    {
        "name": "Guadalajarita",
        "zipcode": "45118",
        "sepomexId": "56624",
        "latitude": "20.7136453",
        "longitude": "-103.397"
    },
    {
        "name": "Guadalupe",
        "zipcode": "45047",
        "sepomexId": "56517",
        "latitude": "20.6630564",
        "longitude": "-103.4159593"
    },
    {
        "name": "Guadalupe Inn",
        "zipcode": "45037",
        "sepomexId": "56503",
        "latitude": "20.660131",
        "longitude": "-103.4461194"
    },
    {
        "name": "Guadalupe Jardín",
        "zipcode": "45030",
        "sepomexId": "56489",
        "latitude": "20.6585787",
        "longitude": "-103.428781"
    },
    {
        "name": "Guadalupe Sur",
        "zipcode": "45036",
        "sepomexId": "56500",
        "latitude": "20.653852",
        "longitude": "-103.4378111"
    },
    {
        "name": "GVSA",
        "zipcode": "45170",
        "sepomexId": "56801",
        "latitude": "20.7166667",
        "longitude": "-103.4"
    },
    {
        "name": "Hacienda Cópala",
        "zipcode": "45200",
        "sepomexId": "183414",
        "latitude": "20.8689661",
        "longitude": "-103.4363412"
    },
    {
        "name": "Hacienda de Las Lomas",
        "zipcode": "45120",
        "sepomexId": "56627",
        "latitude": "20.6848738",
        "longitude": "-103.4146952"
    },
    {
        "name": "Hacienda del Sol",
        "zipcode": "45130",
        "sepomexId": "56656",
        "latitude": "20.7323335",
        "longitude": "-103.3942193"
    },
    {
        "name": "Hacienda Del Tepeyac",
        "zipcode": "45053",
        "sepomexId": "56525",
        "latitude": "20.6503679",
        "longitude": "-103.4403396"
    },
    {
        "name": "Hacienda Jacarandas",
        "zipcode": "45239",
        "sepomexId": "183450",
        "latitude": "20.6130699",
        "longitude": "-103.4528562"
    },
    {
        "name": "Hacienda La Herradura",
        "zipcode": "45226",
        "sepomexId": "56953",
        "latitude": "20.6553277",
        "longitude": "-103.437569"
    },
    {
        "name": "Hacienda las Palomas",
        "zipcode": "45220",
        "sepomexId": "56941",
        "latitude": "20.7285134",
        "longitude": "-103.3496688"
    },
    {
        "name": "Hacienda las Tejas",
        "zipcode": "45230",
        "sepomexId": "56958",
        "latitude": "20.7166667",
        "longitude": "-103.4"
    },
    {
        "name": "Hacienda San Antonio del Valle",
        "zipcode": "45079",
        "sepomexId": "56574",
        "latitude": "21.118425",
        "longitude": "-101.6612766"
    },
    {
        "name": "Hacienda San Joaquín",
        "zipcode": "45180",
        "sepomexId": "56832",
        "latitude": "20.700265",
        "longitude": "-103.2926881"
    },
    {
        "name": "Haciendas de Zapopan",
        "zipcode": "45200",
        "sepomexId": "183398",
        "latitude": "20.7994027",
        "longitude": "-103.4710474"
    },
    {
        "name": "Haciendas Del Valle",
        "zipcode": "45133",
        "sepomexId": "56662",
        "latitude": "20.7590254",
        "longitude": "-103.3955556"
    },
    {
        "name": "Haciendas Del Valle 2a Sección",
        "zipcode": "45133",
        "sepomexId": "56669",
        "latitude": "20.7488207",
        "longitude": "-103.3673423"
    },
    {
        "name": "Hermenegildo Galeana",
        "zipcode": "45184",
        "sepomexId": "56844",
        "latitude": "20.7171615",
        "longitude": "-103.3685715"
    },
    {
        "name": "Héroes Nacionales",
        "zipcode": "45138",
        "sepomexId": "56715",
        "latitude": "20.7651251",
        "longitude": "-103.4522606"
    },
    {
        "name": "Hogar de Atemajac",
        "zipcode": "45180",
        "sepomexId": "56842",
        "latitude": "20.7212289",
        "longitude": "-103.3646289"
    },
    {
        "name": "Hogares",
        "zipcode": "45190",
        "sepomexId": "56897",
        "latitude": "20.7187777",
        "longitude": "-103.3487358"
    },
    {
        "name": "Hogares de Nuevo México",
        "zipcode": "45138",
        "sepomexId": "56721",
        "latitude": "20.7660618",
        "longitude": "-103.4266138"
    },
    {
        "name": "Indígena de Mezquitan",
        "zipcode": "45190",
        "sepomexId": "56892",
        "latitude": "20.7385264",
        "longitude": "-103.3312962"
    },
    {
        "name": "Indígena San Juan de Ocotan",
        "zipcode": "45019",
        "sepomexId": "56469",
        "latitude": "20.7096402",
        "longitude": "-103.4569571"
    },
    {
        "name": "Industrial los Belenes",
        "zipcode": "45157",
        "sepomexId": "56769",
        "latitude": "20.7341072",
        "longitude": "-103.378224"
    },
    {
        "name": "Jacarandas",
        "zipcode": "45110",
        "sepomexId": "56599",
        "latitude": "20.7148964",
        "longitude": "-103.3811124"
    },
    {
        "name": "Jacarandas",
        "zipcode": "45133",
        "sepomexId": "183352",
        "latitude": "20.7148964",
        "longitude": "-103.3811124"
    },
    {
        "name": "Jacarandas",
        "zipcode": "45160",
        "sepomexId": "183394",
        "latitude": "20.7148964",
        "longitude": "-103.3811124"
    },
    {
        "name": "Jardín Real",
        "zipcode": "45136",
        "sepomexId": "56708",
        "latitude": "20.736285",
        "longitude": "-103.4382946"
    },
    {
        "name": "Jardines de Chapalita",
        "zipcode": "45010",
        "sepomexId": "56445",
        "latitude": "20.6601366",
        "longitude": "-103.4414233"
    },
    {
        "name": "Jardines de Guadalupe",
        "zipcode": "45030",
        "sepomexId": "56492",
        "latitude": "20.6640871",
        "longitude": "-103.4237244"
    },
    {
        "name": "Jardines de Ixtepete",
        "zipcode": "45236",
        "sepomexId": "56976",
        "latitude": "20.6274167",
        "longitude": "-103.4421537"
    },
    {
        "name": "Jardines de la Cantera",
        "zipcode": "45180",
        "sepomexId": "56834",
        "latitude": "20.7689302",
        "longitude": "-103.3388043"
    },
    {
        "name": "Jardines de La Esperanza",
        "zipcode": "45180",
        "sepomexId": "56818",
        "latitude": "20.7375519",
        "longitude": "-103.3576458"
    },
    {
        "name": "Jardines de La Patria",
        "zipcode": "45110",
        "sepomexId": "56601",
        "latitude": "20.6839678",
        "longitude": "-103.4215573"
    },
    {
        "name": "Jardines de La Primavera",
        "zipcode": "45066",
        "sepomexId": "56554",
        "latitude": "20.6356151",
        "longitude": "-103.4704301"
    },
    {
        "name": "Jardines de Las Fuentes",
        "zipcode": "45138",
        "sepomexId": "56729",
        "latitude": "20.727615",
        "longitude": "-103.3397193"
    },
    {
        "name": "Jardines de los Belenes",
        "zipcode": "45190",
        "sepomexId": "56898",
        "latitude": "20.7326844",
        "longitude": "-103.3312962"
    },
    {
        "name": "Jardines de Nuevo México",
        "zipcode": "45138",
        "sepomexId": "56712",
        "latitude": "20.7291348",
        "longitude": "-103.3996208"
    },
    {
        "name": "Jardines de San Antonio",
        "zipcode": "45138",
        "sepomexId": "56737",
        "latitude": "20.6270033",
        "longitude": "-103.4369294"
    },
    {
        "name": "Jardines de San Gonzalo",
        "zipcode": "45134",
        "sepomexId": "56694",
        "latitude": "20.7035195",
        "longitude": "-103.4105669"
    },
    {
        "name": "Jardines de San Ignacio",
        "zipcode": "45040",
        "sepomexId": "56514",
        "latitude": "20.6690456",
        "longitude": "-103.4071112"
    },
    {
        "name": "Jardines de Santa Ana",
        "zipcode": "45230",
        "sepomexId": "56955",
        "latitude": "20.7269776",
        "longitude": "-103.4104222"
    },
    {
        "name": "Jardines de Santa Margarita",
        "zipcode": "45138",
        "sepomexId": "56724",
        "latitude": "20.6203336",
        "longitude": "-103.4390443"
    },
    {
        "name": "Jardines de Tabachines",
        "zipcode": "45188",
        "sepomexId": "56869",
        "latitude": "20.7373164",
        "longitude": "-103.3699201"
    },
    {
        "name": "Jardines Del Auditorio",
        "zipcode": "45180",
        "sepomexId": "56821",
        "latitude": "20.7327135",
        "longitude": "-103.3502983"
    },
    {
        "name": "Jardines del Porvenir",
        "zipcode": "45180",
        "sepomexId": "56814",
        "latitude": "20.7376125",
        "longitude": "-103.352231"
    },
    {
        "name": "Jardines Del Sol",
        "zipcode": "45050",
        "sepomexId": "56524",
        "latitude": "20.64725",
        "longitude": "-103.4150564"
    },
    {
        "name": "Jardines Del Valle",
        "zipcode": "45138",
        "sepomexId": "56711",
        "latitude": "20.7483121",
        "longitude": "-103.4295033"
    },
    {
        "name": "Jardines Del Vergel",
        "zipcode": "45180",
        "sepomexId": "56833",
        "latitude": "20.7542194",
        "longitude": "-103.3731694"
    },
    {
        "name": "Jardines la Magdalena",
        "zipcode": "45200",
        "sepomexId": "183423",
        "latitude": "20.8058929",
        "longitude": "-103.4515304"
    },
    {
        "name": "Jardines San Francisco",
        "zipcode": "45138",
        "sepomexId": "183382",
        "latitude": "20.7738536",
        "longitude": "-103.4614426"
    },
    {
        "name": "Jardines Seattle Unidad",
        "zipcode": "45180",
        "sepomexId": "56825",
        "latitude": "20.7167542",
        "longitude": "-103.3799944"
    },
    {
        "name": "Jardines Tapatíos",
        "zipcode": "45065",
        "sepomexId": "56542",
        "latitude": "20.6407875",
        "longitude": "-103.4692409"
    },
    {
        "name": "Jardines Tepeyac",
        "zipcode": "45034",
        "sepomexId": "56494",
        "latitude": "20.6607217",
        "longitude": "-103.4201126"
    },
    {
        "name": "Jardines Universidad",
        "zipcode": "45110",
        "sepomexId": "56600",
        "latitude": "20.6883479",
        "longitude": "-103.4215573"
    },
    {
        "name": "Jardines Vallarta",
        "zipcode": "45027",
        "sepomexId": "56481",
        "latitude": "20.6809339",
        "longitude": "-103.423002"
    },
    {
        "name": "Jardines Villas del Bosque",
        "zipcode": "45089",
        "sepomexId": "56593",
        "latitude": "20.6103942",
        "longitude": "-103.45396"
    },
    {
        "name": "Jocotan",
        "zipcode": "45017",
        "sepomexId": "56462",
        "latitude": "20.7166667",
        "longitude": "-103.4"
    },
    {
        "name": "José López Portillo",
        "zipcode": "45180",
        "sepomexId": "56815",
        "latitude": "20.6237989",
        "longitude": "-103.4416249"
    },
    {
        "name": "Juan Manuel Ruvalcaba",
        "zipcode": "45138",
        "sepomexId": "56718",
        "latitude": "20.7334437",
        "longitude": "-103.3359343"
    },
    {
        "name": "Juan Manuel Vallarta",
        "zipcode": "45120",
        "sepomexId": "56632",
        "latitude": "20.680271",
        "longitude": "-103.4128895"
    },
    {
        "name": "La Arboleda",
        "zipcode": "45148",
        "sepomexId": "56759",
        "latitude": "20.7328396",
        "longitude": "-103.4081946"
    },
    {
        "name": "La Aurora",
        "zipcode": "45159",
        "sepomexId": "56782",
        "latitude": "20.7246766",
        "longitude": "-103.3728084"
    },
    {
        "name": "La Calma",
        "zipcode": "45070",
        "sepomexId": "56565",
        "latitude": "20.6355702",
        "longitude": "-103.4150564"
    },
    {
        "name": "La Calma 2a Secc",
        "zipcode": "45080",
        "sepomexId": "56583",
        "latitude": "20.6786008",
        "longitude": "-103.398787"
    },
    {
        "name": "La Casita",
        "zipcode": "45138",
        "sepomexId": "56720",
        "latitude": "20.7378756",
        "longitude": "-103.423002"
    },
    {
        "name": "La Castilla",
        "zipcode": "45010",
        "sepomexId": "56450",
        "latitude": "20.6571598",
        "longitude": "-103.4421458"
    },
    {
        "name": "La Ceiba",
        "zipcode": "45136",
        "sepomexId": "183376",
        "latitude": "20.7163402",
        "longitude": "-103.4252849"
    },
    {
        "name": "La Cima",
        "zipcode": "45134",
        "sepomexId": "56677",
        "latitude": "20.6925515",
        "longitude": "-103.4284198"
    },
    {
        "name": "La Coronilla",
        "zipcode": "45189",
        "sepomexId": "56884",
        "latitude": "20.7621213",
        "longitude": "-103.3284089"
    },
    {
        "name": "La Cuchilla (Extramuros de Tesistán)",
        "zipcode": "45200",
        "sepomexId": "183417",
        "latitude": "20.7754789",
        "longitude": "-103.4653947"
    },
    {
        "name": "La Cúspide",
        "zipcode": "45200",
        "sepomexId": "183416",
        "latitude": "20.8107326",
        "longitude": "-103.4890282"
    },
    {
        "name": "La Estancia",
        "zipcode": "45030",
        "sepomexId": "56483",
        "latitude": "20.6694714",
        "longitude": "-103.4295033"
    },
    {
        "name": "La Experiencia",
        "zipcode": "45198",
        "sepomexId": "56901",
        "latitude": "20.7300972",
        "longitude": "-103.3363491"
    },
    {
        "name": "La Favorita",
        "zipcode": "45128",
        "sepomexId": "56635",
        "latitude": "20.7166667",
        "longitude": "-103.4"
    },
    {
        "name": "La Floresta Del Colli",
        "zipcode": "45068",
        "sepomexId": "56560",
        "latitude": "20.6467406",
        "longitude": "-103.4677957"
    },
    {
        "name": "La Florida",
        "zipcode": "45234",
        "sepomexId": "56960",
        "latitude": "20.597604",
        "longitude": "-103.4244467"
    },
    {
        "name": "La Giralda",
        "zipcode": "45088",
        "sepomexId": "56590",
        "latitude": "20.6443387",
        "longitude": "-103.4056667"
    },
    {
        "name": "La Grana",
        "zipcode": "45180",
        "sepomexId": "56838",
        "latitude": "20.7430948",
        "longitude": "-103.3819193"
    },
    {
        "name": "La Haciendita",
        "zipcode": "45230",
        "sepomexId": "56957",
        "latitude": "20.6161584",
        "longitude": "-103.4518842"
    },
    {
        "name": "La Higuera",
        "zipcode": "45189",
        "sepomexId": "56875",
        "latitude": "20.7529047",
        "longitude": "-103.3341835"
    },
    {
        "name": "La Hoja Verde",
        "zipcode": "45150",
        "sepomexId": "56765",
        "latitude": "20.7166667",
        "longitude": "-103.4"
    },
    {
        "name": "La Huerta",
        "zipcode": "45180",
        "sepomexId": "56836",
        "latitude": "20.7259747",
        "longitude": "-103.3655879"
    },
    {
        "name": "La Joya",
        "zipcode": "45180",
        "sepomexId": "56813",
        "latitude": "20.710736",
        "longitude": "-103.2991787"
    },
    {
        "name": "La Joyita",
        "zipcode": "45200",
        "sepomexId": "183399",
        "latitude": "20.8087598",
        "longitude": "-103.4818872"
    },
    {
        "name": "La Laja",
        "zipcode": "45117",
        "sepomexId": "56616",
        "latitude": "20.7166667",
        "longitude": "-103.4"
    },
    {
        "name": "La Loma",
        "zipcode": "45140",
        "sepomexId": "56751",
        "latitude": "20.7289541",
        "longitude": "-103.3469466"
    },
    {
        "name": "La Loma",
        "zipcode": "45238",
        "sepomexId": "183446",
        "latitude": "20.607008",
        "longitude": "-103.4533444"
    },
    {
        "name": "La Magdalena",
        "zipcode": "45019",
        "sepomexId": "56473",
        "latitude": "20.6601709",
        "longitude": "-103.4358434"
    },
    {
        "name": "La Magdalena",
        "zipcode": "45200",
        "sepomexId": "183433",
        "latitude": "20.8106042",
        "longitude": "-103.4640443"
    },
    {
        "name": "La Martinica",
        "zipcode": "45185",
        "sepomexId": "56846",
        "latitude": "20.7452389",
        "longitude": "-103.3666709"
    },
    {
        "name": "La Mojonera",
        "zipcode": "45019",
        "sepomexId": "56475",
        "latitude": "20.749025",
        "longitude": "-103.4001876"
    },
    {
        "name": "La Mora",
        "zipcode": "45136",
        "sepomexId": "56710",
        "latitude": "20.7315846",
        "longitude": "-103.4240855"
    },
    {
        "name": "La Moraleja",
        "zipcode": "45134",
        "sepomexId": "139157",
        "latitude": "20.7955786",
        "longitude": "-103.4544565"
    },
    {
        "name": "La Noria Residencial",
        "zipcode": "45138",
        "sepomexId": "56746",
        "latitude": "20.6471915",
        "longitude": "-103.4688113"
    },
    {
        "name": "La Palmira",
        "zipcode": "45234",
        "sepomexId": "56961",
        "latitude": "20.593784",
        "longitude": "-103.4266138"
    },
    {
        "name": "La Palmita",
        "zipcode": "45180",
        "sepomexId": "56812",
        "latitude": "20.7286232",
        "longitude": "-103.3551189"
    },
    {
        "name": "La Patria Universidad",
        "zipcode": "45119",
        "sepomexId": "56625",
        "latitude": "20.6868361",
        "longitude": "-103.4175845"
    },
    {
        "name": "La Primavera",
        "zipcode": "45226",
        "sepomexId": "56954",
        "latitude": "20.6356151",
        "longitude": "-103.4704301"
    },
    {
        "name": "La Ratonera",
        "zipcode": "45222",
        "sepomexId": "56951",
        "latitude": "20.7166667",
        "longitude": "-103.4"
    },
    {
        "name": "La Soledad",
        "zipcode": "45220",
        "sepomexId": "56944",
        "latitude": "20.5715169",
        "longitude": "-103.4456702"
    },
    {
        "name": "La Toscana",
        "zipcode": "45136",
        "sepomexId": "183371",
        "latitude": "20.7273373",
        "longitude": "-103.4326721"
    },
    {
        "name": "La Tuzania",
        "zipcode": "45138",
        "sepomexId": "56735",
        "latitude": "20.7350812",
        "longitude": "-103.4121672"
    },
    {
        "name": "La Venta Del Astillero",
        "zipcode": "45221",
        "sepomexId": "56947",
        "latitude": "20.7166667",
        "longitude": "-103.4"
    },
    {
        "name": "La Villa",
        "zipcode": "45100",
        "sepomexId": "56594",
        "latitude": "20.7280369",
        "longitude": "-103.3930643"
    },
    {
        "name": "Lago Real",
        "zipcode": "45200",
        "sepomexId": "56913",
        "latitude": "20.7399405",
        "longitude": "-103.4193394"
    },
    {
        "name": "Lagos del Country",
        "zipcode": "45177",
        "sepomexId": "56807",
        "latitude": "20.7156918",
        "longitude": "-103.3710032"
    },
    {
        "name": "Las Águilas",
        "zipcode": "45080",
        "sepomexId": "56580",
        "latitude": "20.6315457",
        "longitude": "-103.4160815"
    },
    {
        "name": "Las Agujas",
        "zipcode": "45200",
        "sepomexId": "56924",
        "latitude": "20.7942901",
        "longitude": "-103.4857116"
    },
    {
        "name": "Las Alamedas",
        "zipcode": "45079",
        "sepomexId": "56576",
        "latitude": "20.6361108",
        "longitude": "-103.436005"
    },
    {
        "name": "Las Bóvedas",
        "zipcode": "45138",
        "sepomexId": "56742",
        "latitude": "20.7166667",
        "longitude": "-103.4"
    },
    {
        "name": "Las Cabañitas",
        "zipcode": "45180",
        "sepomexId": "56843",
        "latitude": "20.754001",
        "longitude": "-103.3666709"
    },
    {
        "name": "Las Cañadas",
        "zipcode": "45206",
        "sepomexId": "56938",
        "latitude": "20.7904387",
        "longitude": "-103.3532381"
    },
    {
        "name": "Las Flores",
        "zipcode": "45040",
        "sepomexId": "56510",
        "latitude": "20.6698279",
        "longitude": "-103.4110837"
    },
    {
        "name": "Las Fuentes",
        "zipcode": "45070",
        "sepomexId": "56568",
        "latitude": "20.6229814",
        "longitude": "-103.4266138"
    },
    {
        "name": "Las Fuentes",
        "zipcode": "45180",
        "sepomexId": "183395",
        "latitude": "20.724847",
        "longitude": "-103.3706422"
    },
    {
        "name": "Las Golondrinas",
        "zipcode": "45200",
        "sepomexId": "56934",
        "latitude": "20.7277537",
        "longitude": "-103.348827"
    },
    {
        "name": "Las Higuerillas",
        "zipcode": "45019",
        "sepomexId": "56468",
        "latitude": "20.7480785",
        "longitude": "-103.3569252"
    },
    {
        "name": "Las Lomas Club Golf",
        "zipcode": "45136",
        "sepomexId": "56704",
        "latitude": "20.7166667",
        "longitude": "-103.4"
    },
    {
        "name": "Las Palomas",
        "zipcode": "45190",
        "sepomexId": "56893",
        "latitude": "20.7285134",
        "longitude": "-103.3496688"
    },
    {
        "name": "Las Pirámides",
        "zipcode": "45077",
        "sepomexId": "56572",
        "latitude": "20.6250529",
        "longitude": "-103.4327541"
    },
    {
        "name": "Las Ventanas",
        "zipcode": "45133",
        "sepomexId": "183341",
        "latitude": "20.7676229",
        "longitude": "-103.4062829"
    },
    {
        "name": "Las Victorias Residencial",
        "zipcode": "45200",
        "sepomexId": "183431",
        "latitude": "20.7899646",
        "longitude": "-103.4842315"
    },
    {
        "name": "Lindavista",
        "zipcode": "45169",
        "sepomexId": "56798",
        "latitude": "20.7199933",
        "longitude": "-103.3951945"
    },
    {
        "name": "Loma Blanca",
        "zipcode": "45167",
        "sepomexId": "56794",
        "latitude": "20.7151979",
        "longitude": "-103.3888754"
    },
    {
        "name": "Loma Bonita",
        "zipcode": "45086",
        "sepomexId": "56586",
        "latitude": "20.6393989",
        "longitude": "-103.4035"
    },
    {
        "name": "Loma Bonita Ejidal",
        "zipcode": "45085",
        "sepomexId": "56585",
        "latitude": "20.6306388",
        "longitude": "-103.4035"
    },
    {
        "name": "Loma Bonita Sur",
        "zipcode": "45086",
        "sepomexId": "56587",
        "latitude": "20.6356921",
        "longitude": "-103.4042222"
    },
    {
        "name": "Loma Chica",
        "zipcode": "45200",
        "sepomexId": "56918",
        "latitude": "20.696949",
        "longitude": "-103.3958077"
    },
    {
        "name": "Loma Real",
        "zipcode": "45129",
        "sepomexId": "56637",
        "latitude": "20.6886378",
        "longitude": "-103.4132506"
    },
    {
        "name": "Lomas Altas",
        "zipcode": "45128",
        "sepomexId": "56634",
        "latitude": "20.6848788",
        "longitude": "-103.4100003"
    },
    {
        "name": "Lomas de Atemajac",
        "zipcode": "45178",
        "sepomexId": "56808",
        "latitude": "20.7149127",
        "longitude": "-103.3623388"
    },
    {
        "name": "Lomas de Guadalupe",
        "zipcode": "45038",
        "sepomexId": "56507",
        "latitude": "20.6682493",
        "longitude": "-103.4172233"
    },
    {
        "name": "Lomas de La Primavera",
        "zipcode": "45065",
        "sepomexId": "56544",
        "latitude": "20.6426916",
        "longitude": "-103.472854"
    },
    {
        "name": "Lomas de las Palmas",
        "zipcode": "45118",
        "sepomexId": "56623",
        "latitude": "20.7567317",
        "longitude": "-103.3603784"
    },
    {
        "name": "Lomas de Miramar",
        "zipcode": "45068",
        "sepomexId": "56558",
        "latitude": "20.656156",
        "longitude": "-103.4442034"
    },
    {
        "name": "Lomas de Montechelo (El Pedregal)",
        "zipcode": "45200",
        "sepomexId": "183415",
        "latitude": "20.8567815",
        "longitude": "-103.4241113"
    },
    {
        "name": "Lomas de San Gonzalo",
        "zipcode": "45134",
        "sepomexId": "56679",
        "latitude": "20.7035195",
        "longitude": "-103.4105669"
    },
    {
        "name": "Lomas de San Isidro",
        "zipcode": "45130",
        "sepomexId": "56651",
        "latitude": "20.7267024",
        "longitude": "-103.3791128"
    },
    {
        "name": "Lomas de Santa Rita",
        "zipcode": "45120",
        "sepomexId": "56633",
        "latitude": "20.6670466",
        "longitude": "-103.4071202"
    },
    {
        "name": "Lomas de Tabachines",
        "zipcode": "45185",
        "sepomexId": "56849",
        "latitude": "20.7479408",
        "longitude": "-103.3601728"
    },
    {
        "name": "Lomas de Zapopan",
        "zipcode": "45130",
        "sepomexId": "56653",
        "latitude": "20.7447544",
        "longitude": "-103.400611"
    },
    {
        "name": "Lomas Del Batan",
        "zipcode": "45190",
        "sepomexId": "56895",
        "latitude": "20.723122",
        "longitude": "-103.3507872"
    },
    {
        "name": "Lomas Del Bosque",
        "zipcode": "45118",
        "sepomexId": "56620",
        "latitude": "20.7128482",
        "longitude": "-103.4071112"
    },
    {
        "name": "Lomas del Camino",
        "zipcode": "45176",
        "sepomexId": "56806",
        "latitude": "20.714673",
        "longitude": "-103.3615903"
    },
    {
        "name": "Lomas Del Centinela",
        "zipcode": "45187",
        "sepomexId": "56862",
        "latitude": "20.7650106",
        "longitude": "-103.3659489"
    },
    {
        "name": "Lomas Del Colli",
        "zipcode": "45010",
        "sepomexId": "56438",
        "latitude": "20.6640542",
        "longitude": "-103.4518994"
    },
    {
        "name": "Lomas Del Refugio",
        "zipcode": "45186",
        "sepomexId": "56854",
        "latitude": "20.7432414",
        "longitude": "-103.3363491"
    },
    {
        "name": "Lomas Del Seminario",
        "zipcode": "45038",
        "sepomexId": "56508",
        "latitude": "20.667794",
        "longitude": "-103.423002"
    },
    {
        "name": "Lomas Del Valle",
        "zipcode": "45129",
        "sepomexId": "56636",
        "latitude": "20.689041",
        "longitude": "-103.4035"
    },
    {
        "name": "Lomas Del Vergel",
        "zipcode": "45188",
        "sepomexId": "56873",
        "latitude": "20.7495063",
        "longitude": "-103.368115"
    },
    {
        "name": "Lomas Universidad",
        "zipcode": "45016",
        "sepomexId": "56460",
        "latitude": "20.684516",
        "longitude": "-103.4331153"
    },
    {
        "name": "Los Abetos",
        "zipcode": "45158",
        "sepomexId": "56778",
        "latitude": "20.6807723",
        "longitude": "-103.406391"
    },
    {
        "name": "Los Alamitos",
        "zipcode": "45134",
        "sepomexId": "56683",
        "latitude": "20.7641374",
        "longitude": "-103.4370887"
    },
    {
        "name": "Los Almendros",
        "zipcode": "45135",
        "sepomexId": "56701",
        "latitude": "20.7696455",
        "longitude": "-103.352285"
    },
    {
        "name": "Los Angeles de Nextipac",
        "zipcode": "45220",
        "sepomexId": "56940",
        "latitude": "20.7476992",
        "longitude": "-103.4402787"
    },
    {
        "name": "Los Cajetes",
        "zipcode": "45234",
        "sepomexId": "56963",
        "latitude": "20.5881716",
        "longitude": "-103.4237244"
    },
    {
        "name": "Los Canteros",
        "zipcode": "45190",
        "sepomexId": "56894",
        "latitude": "20.7284102",
        "longitude": "-103.3392366"
    },
    {
        "name": "Los Castaños",
        "zipcode": "45115",
        "sepomexId": "183329",
        "latitude": "20.697866",
        "longitude": "-103.4443132"
    },
    {
        "name": "Los Cerritos",
        "zipcode": "45180",
        "sepomexId": "56826",
        "latitude": "20.0769285",
        "longitude": "-102.7176817"
    },
    {
        "name": "Los Flamingos (La Vinatera)",
        "zipcode": "45200",
        "sepomexId": "183411",
        "latitude": "20.8327808",
        "longitude": "-103.4510192"
    },
    {
        "name": "Los Girasoles",
        "zipcode": "45136",
        "sepomexId": "56707",
        "latitude": "20.7275409",
        "longitude": "-103.4244467"
    },
    {
        "name": "Los Jazmines",
        "zipcode": "45019",
        "sepomexId": "56470",
        "latitude": "20.7416334",
        "longitude": "-103.4220455"
    },
    {
        "name": "Los Laureles",
        "zipcode": "45158",
        "sepomexId": "56779",
        "latitude": "20.7300765",
        "longitude": "-103.3923996"
    },
    {
        "name": "Los Maestros",
        "zipcode": "45150",
        "sepomexId": "56768",
        "latitude": "20.7235486",
        "longitude": "-103.3778629"
    },
    {
        "name": "Los Mandarinos",
        "zipcode": "45138",
        "sepomexId": "183381",
        "latitude": "20.749842",
        "longitude": "-103.437277"
    },
    {
        "name": "Los Mirasoles",
        "zipcode": "45236",
        "sepomexId": "183441",
        "latitude": "20.6124817",
        "longitude": "-103.4433966"
    },
    {
        "name": "Los Molinos",
        "zipcode": "45200",
        "sepomexId": "56927",
        "latitude": "20.7187777",
        "longitude": "-103.3487358"
    },
    {
        "name": "Los Nísperos",
        "zipcode": "45134",
        "sepomexId": "183363",
        "latitude": "20.781908",
        "longitude": "-103.4461594"
    },
    {
        "name": "Los Olivos",
        "zipcode": "45207",
        "sepomexId": "56939",
        "latitude": "20.6526379",
        "longitude": "-103.4403489"
    },
    {
        "name": "Los Palomos",
        "zipcode": "45129",
        "sepomexId": "56638",
        "latitude": "20.7514165",
        "longitude": "-103.4341608"
    },
    {
        "name": "Los Paraísos",
        "zipcode": "45157",
        "sepomexId": "56773",
        "latitude": "20.7284863",
        "longitude": "-103.3782542"
    },
    {
        "name": "Los Pinos",
        "zipcode": "45120",
        "sepomexId": "56630",
        "latitude": "20.6080324",
        "longitude": "-103.4403396"
    },
    {
        "name": "Los Pinos",
        "zipcode": "45200",
        "sepomexId": "183432",
        "latitude": "20.8116925",
        "longitude": "-103.4997891"
    },
    {
        "name": "Los Pinos Campestre",
        "zipcode": "45239",
        "sepomexId": "56991",
        "latitude": "24.0025094",
        "longitude": "-104.6553641"
    },
    {
        "name": "Los Pollitos",
        "zipcode": "45234",
        "sepomexId": "56959",
        "latitude": "20.7166667",
        "longitude": "-103.4"
    },
    {
        "name": "Los Robles",
        "zipcode": "45134",
        "sepomexId": "56688",
        "latitude": "20.7469131",
        "longitude": "-103.4215054"
    },
    {
        "name": "Los Sueños",
        "zipcode": "45222",
        "sepomexId": "183440",
        "latitude": "20.7112347",
        "longitude": "-103.4761399"
    },
    {
        "name": "Los Telares",
        "zipcode": "45200",
        "sepomexId": "183400",
        "latitude": "20.7975206",
        "longitude": "-103.4866436"
    },
    {
        "name": "Los Tréboles",
        "zipcode": "45200",
        "sepomexId": "183418",
        "latitude": "20.822922",
        "longitude": "-103.4372398"
    },
    {
        "name": "Los Tres Vaqueros",
        "zipcode": "45200",
        "sepomexId": "183401",
        "latitude": "20.7921519",
        "longitude": "-103.4750219"
    },
    {
        "name": "Lucero del Valle",
        "zipcode": "45138",
        "sepomexId": "183385",
        "latitude": "20.7546415",
        "longitude": "-103.4384052"
    },
    {
        "name": "Lugano",
        "zipcode": "45136",
        "sepomexId": "183377",
        "latitude": "20.7136001",
        "longitude": "-103.4251556"
    },
    {
        "name": "Luis Donaldo Colosio",
        "zipcode": "45138",
        "sepomexId": "56726",
        "latitude": "20.6403007",
        "longitude": "-103.4798118"
    },
    {
        "name": "Madeiras",
        "zipcode": "45134",
        "sepomexId": "183358",
        "latitude": "20.774738",
        "longitude": "-103.4267898"
    },
    {
        "name": "Magisterial Mirador de San Isidro",
        "zipcode": "45130",
        "sepomexId": "56654",
        "latitude": "20.7549583",
        "longitude": "-103.3665983"
    },
    {
        "name": "Marcelino Garcia Barragán",
        "zipcode": "45134",
        "sepomexId": "56681",
        "latitude": "20.6267946",
        "longitude": "-103.4382617"
    },
    {
        "name": "Mariano Otero",
        "zipcode": "45067",
        "sepomexId": "56557",
        "latitude": "20.6301472",
        "longitude": "-103.4468419"
    },
    {
        "name": "Martell del Valle",
        "zipcode": "45200",
        "sepomexId": "183402",
        "latitude": "20.8557911",
        "longitude": "-103.430707"
    },
    {
        "name": "Mesa Colorada Oriente",
        "zipcode": "45189",
        "sepomexId": "56874",
        "latitude": "20.7650353",
        "longitude": "-103.3377928"
    },
    {
        "name": "Mesa Colorada Poniente",
        "zipcode": "45189",
        "sepomexId": "56883",
        "latitude": "20.7735633",
        "longitude": "-103.3500652"
    },
    {
        "name": "Mesa de los Ocotes",
        "zipcode": "45189",
        "sepomexId": "56877",
        "latitude": "20.7632265",
        "longitude": "-103.3515091"
    },
    {
        "name": "Miguel de La Madrid Hurtado",
        "zipcode": "45239",
        "sepomexId": "56992",
        "latitude": "24.0030264",
        "longitude": "-104.6591771"
    },
    {
        "name": "Miguel Hidalgo",
        "zipcode": "45186",
        "sepomexId": "56857",
        "latitude": "20.7473961",
        "longitude": "-103.3392366"
    },
    {
        "name": "Militar Zapopan",
        "zipcode": "45138",
        "sepomexId": "56738",
        "latitude": "20.7541999",
        "longitude": "-103.4625001"
    },
    {
        "name": "Mirador de La Cañada",
        "zipcode": "45133",
        "sepomexId": "56670",
        "latitude": "20.7493847",
        "longitude": "-103.4001592"
    },
    {
        "name": "Mirador de San Isidro",
        "zipcode": "45133",
        "sepomexId": "56666",
        "latitude": "20.7267024",
        "longitude": "-103.3791128"
    },
    {
        "name": "Mirador de San Isidro 3a Sección",
        "zipcode": "45133",
        "sepomexId": "56664",
        "latitude": "20.7267024",
        "longitude": "-103.3791128"
    },
    {
        "name": "Mirador del Bosque",
        "zipcode": "45200",
        "sepomexId": "56922",
        "latitude": "20.7669151",
        "longitude": "-103.3272267"
    },
    {
        "name": "Mirador Del Sol",
        "zipcode": "45054",
        "sepomexId": "56527",
        "latitude": "20.652635",
        "longitude": "-103.420835"
    },
    {
        "name": "Mirador Escondido",
        "zipcode": "45189",
        "sepomexId": "56878",
        "latitude": "20.7654891",
        "longitude": "-103.332018"
    },
    {
        "name": "Miramar",
        "zipcode": "45060",
        "sepomexId": "56541",
        "latitude": "20.6386782",
        "longitude": "-103.4497318"
    },
    {
        "name": "Misión Capistrano",
        "zipcode": "45200",
        "sepomexId": "56926",
        "latitude": "20.7166667",
        "longitude": "-103.4"
    },
    {
        "name": "Misión de San Isidro",
        "zipcode": "45133",
        "sepomexId": "56671",
        "latitude": "20.6539408",
        "longitude": "-103.4331524"
    },
    {
        "name": "Misión Del Bosque",
        "zipcode": "45133",
        "sepomexId": "56673",
        "latitude": "20.763189",
        "longitude": "-103.3890559"
    },
    {
        "name": "Misión Del Valle",
        "zipcode": "45138",
        "sepomexId": "56744",
        "latitude": "20.7450617",
        "longitude": "-103.4275955"
    },
    {
        "name": "Misión Del Valle 2",
        "zipcode": "45138",
        "sepomexId": "56731",
        "latitude": "20.7531517",
        "longitude": "-103.4416056"
    },
    {
        "name": "Misión del Valle II",
        "zipcode": "45138",
        "sepomexId": "183391",
        "latitude": "20.75493",
        "longitude": "-103.4394106"
    },
    {
        "name": "Misión Jardines",
        "zipcode": "45138",
        "sepomexId": "56716",
        "latitude": "20.752337",
        "longitude": "-103.439197"
    },
    {
        "name": "Misión La Floresta",
        "zipcode": "45066",
        "sepomexId": "56556",
        "latitude": "20.6620224",
        "longitude": "-103.4448528"
    },
    {
        "name": "Mítica Residencial",
        "zipcode": "45019",
        "sepomexId": "183302",
        "latitude": "20.7349389",
        "longitude": "-103.4686967"
    },
    {
        "name": "Moctezuma Poniente",
        "zipcode": "45059",
        "sepomexId": "56540",
        "latitude": "20.6508236",
        "longitude": "-103.4345602"
    },
    {
        "name": "Molino Del Salvador",
        "zipcode": "45198",
        "sepomexId": "56900",
        "latitude": "20.7268962",
        "longitude": "-103.3352663"
    },
    {
        "name": "Monte Verde",
        "zipcode": "45066",
        "sepomexId": "183316",
        "latitude": "20.6226565",
        "longitude": "-103.4795706"
    },
    {
        "name": "Monte Verde II",
        "zipcode": "45066",
        "sepomexId": "183317",
        "latitude": "20.6226565",
        "longitude": "-103.4795706"
    },
    {
        "name": "Monte Verde III",
        "zipcode": "45066",
        "sepomexId": "183318",
        "latitude": "20.6226565",
        "longitude": "-103.4795706"
    },
    {
        "name": "Montes",
        "zipcode": "45133",
        "sepomexId": "183342",
        "latitude": "20.763189",
        "longitude": "-103.3890559"
    },
    {
        "name": "Natura Bosque Residencial",
        "zipcode": "45066",
        "sepomexId": "183313",
        "latitude": "20.6190559",
        "longitude": "-103.4806286"
    },
    {
        "name": "Navío",
        "zipcode": "45087",
        "sepomexId": "56589",
        "latitude": "20.6320185",
        "longitude": "-103.4107313"
    },
    {
        "name": "Nextipac",
        "zipcode": "45220",
        "sepomexId": "56943",
        "latitude": "20.7476992",
        "longitude": "-103.4402787"
    },
    {
        "name": "Nogales",
        "zipcode": "45133",
        "sepomexId": "183349",
        "latitude": "20.7485598",
        "longitude": "-103.36197"
    },
    {
        "name": "Novaterra",
        "zipcode": "45136",
        "sepomexId": "183372",
        "latitude": "20.7301443",
        "longitude": "-103.434343"
    },
    {
        "name": "Nuestra Señora de Guadalupe",
        "zipcode": "45030",
        "sepomexId": "56486",
        "latitude": "20.7609515",
        "longitude": "-103.4283949"
    },
    {
        "name": "Nueva España",
        "zipcode": "45186",
        "sepomexId": "56856",
        "latitude": "20.7426745",
        "longitude": "-103.3435679"
    },
    {
        "name": "Nueva Galicia",
        "zipcode": "45036",
        "sepomexId": "56502",
        "latitude": "20.6552522",
        "longitude": "-103.4408815"
    },
    {
        "name": "Nueva Galicia 2da Sección",
        "zipcode": "45036",
        "sepomexId": "56498",
        "latitude": "20.6600574",
        "longitude": "-103.4262669"
    },
    {
        "name": "Nueva Primavera",
        "zipcode": "45058",
        "sepomexId": "56538",
        "latitude": "20.6512791",
        "longitude": "-103.428781"
    },
    {
        "name": "Nuevo México",
        "zipcode": "45138",
        "sepomexId": "56736",
        "latitude": "20.7552947",
        "longitude": "-103.4358244"
    },
    {
        "name": "Nuevo Vergel",
        "zipcode": "45180",
        "sepomexId": "56827",
        "latitude": "20.7542284",
        "longitude": "-103.3637828"
    },
    {
        "name": "Olivos Residencial",
        "zipcode": "45019",
        "sepomexId": "183305",
        "latitude": "20.7350169",
        "longitude": "-103.4591247"
    },
    {
        "name": "Olmos",
        "zipcode": "45133",
        "sepomexId": "183348",
        "latitude": "20.763189",
        "longitude": "-103.3890559"
    },
    {
        "name": "Oyamel",
        "zipcode": "45066",
        "sepomexId": "56547",
        "latitude": "20.7531751",
        "longitude": "-103.3314511"
    },
    {
        "name": "Pacífica Habitat",
        "zipcode": "45138",
        "sepomexId": "183386",
        "latitude": "20.7453201",
        "longitude": "-103.4467798"
    },
    {
        "name": "Palermo",
        "zipcode": "45200",
        "sepomexId": "56929",
        "latitude": "20.6908403",
        "longitude": "-103.3913289"
    },
    {
        "name": "Paraíso Los Pinos",
        "zipcode": "45239",
        "sepomexId": "56985",
        "latitude": "20.6092543",
        "longitude": "-103.4470315"
    },
    {
        "name": "Paraísos Del Colli",
        "zipcode": "45069",
        "sepomexId": "56563",
        "latitude": "20.649011",
        "longitude": "-103.4482868"
    },
    {
        "name": "Parque Arrayanes",
        "zipcode": "45066",
        "sepomexId": "183319",
        "latitude": "20.6253795",
        "longitude": "-103.4696044"
    },
    {
        "name": "Parque de La Castellana",
        "zipcode": "45117",
        "sepomexId": "56615",
        "latitude": "20.6917018",
        "longitude": "-103.4345602"
    },
    {
        "name": "Parque de las Aves",
        "zipcode": "45200",
        "sepomexId": "183424",
        "latitude": "20.790096",
        "longitude": "-103.4885577"
    },
    {
        "name": "Parque Industrial El Colli",
        "zipcode": "45069",
        "sepomexId": "56562",
        "latitude": "20.6651854",
        "longitude": "-103.4044189"
    },
    {
        "name": "Parque Real",
        "zipcode": "45136",
        "sepomexId": "56705",
        "latitude": "20.7435825",
        "longitude": "-103.4385335"
    },
    {
        "name": "Parque Regency",
        "zipcode": "45117",
        "sepomexId": "56618",
        "latitude": "20.689124",
        "longitude": "-103.4302257"
    },
    {
        "name": "Parque Sereno",
        "zipcode": "45030",
        "sepomexId": "183308",
        "latitude": "20.6623264",
        "longitude": "-103.4414233"
    },
    {
        "name": "Parques de Tesistán",
        "zipcode": "45200",
        "sepomexId": "56911",
        "latitude": "20.7528052",
        "longitude": "-103.4314669"
    },
    {
        "name": "Parques de Zapopan",
        "zipcode": "45138",
        "sepomexId": "56723",
        "latitude": "20.7456328",
        "longitude": "-103.4172233"
    },
    {
        "name": "Parques del Auditorio",
        "zipcode": "45180",
        "sepomexId": "56822",
        "latitude": "20.7273274",
        "longitude": "-103.3794954"
    },
    {
        "name": "Parques Del Centinela",
        "zipcode": "45135",
        "sepomexId": "56699",
        "latitude": "20.7618288",
        "longitude": "-103.3846809"
    },
    {
        "name": "Parques Del Tepeyac",
        "zipcode": "45053",
        "sepomexId": "56526",
        "latitude": "20.6571201",
        "longitude": "-103.4188455"
    },
    {
        "name": "Parques Guadalupe",
        "zipcode": "45037",
        "sepomexId": "56504",
        "latitude": "20.6605273",
        "longitude": "-103.4434101"
    },
    {
        "name": "Paseos Del Briceño",
        "zipcode": "45236",
        "sepomexId": "56978",
        "latitude": "20.6078019",
        "longitude": "-103.4255344"
    },
    {
        "name": "Paseos del Parque",
        "zipcode": "45010",
        "sepomexId": "183300",
        "latitude": "20.6673262",
        "longitude": "-103.4443023"
    },
    {
        "name": "Paseos del Sol",
        "zipcode": "45079",
        "sepomexId": "56577",
        "latitude": "20.6342056",
        "longitude": "-103.4323929"
    },
    {
        "name": "Paseos Universidad",
        "zipcode": "45016",
        "sepomexId": "56459",
        "latitude": "20.6876583",
        "longitude": "-103.4349214"
    },
    {
        "name": "Patria",
        "zipcode": "45160",
        "sepomexId": "56790",
        "latitude": "20.7100529",
        "longitude": "-103.3863872"
    },
    {
        "name": "Patria Raquet",
        "zipcode": "45160",
        "sepomexId": "56785",
        "latitude": "20.7166667",
        "longitude": "-103.4"
    },
    {
        "name": "Patria Zoquipan",
        "zipcode": "45160",
        "sepomexId": "56788",
        "latitude": "20.7136748",
        "longitude": "-103.3707253"
    },
    {
        "name": "Pedregal Zapopan",
        "zipcode": "45189",
        "sepomexId": "56879",
        "latitude": "20.7409015",
        "longitude": "-103.337685"
    },
    {
        "name": "Pedro Moreno",
        "zipcode": "45180",
        "sepomexId": "56811",
        "latitude": "20.7287329",
        "longitude": "-103.3583678"
    },
    {
        "name": "Periodistas",
        "zipcode": "45078",
        "sepomexId": "56573",
        "latitude": "20.757233",
        "longitude": "-103.3655169"
    },
    {
        "name": "Periquera",
        "zipcode": "45134",
        "sepomexId": "56684",
        "latitude": "20.7705289",
        "longitude": "-103.4439519"
    },
    {
        "name": "Pinar de La Calma",
        "zipcode": "45080",
        "sepomexId": "56578",
        "latitude": "20.6201839",
        "longitude": "-103.4157787"
    },
    {
        "name": "Pinar de La Venta",
        "zipcode": "45221",
        "sepomexId": "56948",
        "latitude": "20.7166667",
        "longitude": "-103.4"
    },
    {
        "name": "Placita del Sol",
        "zipcode": "45134",
        "sepomexId": "56695",
        "latitude": "20.6576019",
        "longitude": "-103.4521289"
    },
    {
        "name": "Plaza Del Sol",
        "zipcode": "45055",
        "sepomexId": "56528",
        "latitude": "20.6519104",
        "longitude": "-103.4002282"
    },
    {
        "name": "Plaza Guadalupe",
        "zipcode": "45030",
        "sepomexId": "56484",
        "latitude": "20.6573362",
        "longitude": "-103.4352826"
    },
    {
        "name": "Plaza Guadalupe 2a Sección",
        "zipcode": "45030",
        "sepomexId": "56491",
        "latitude": "20.664066",
        "longitude": "-103.4151759"
    },
    {
        "name": "Plaza Patria",
        "zipcode": "45160",
        "sepomexId": "56784",
        "latitude": "20.6801611",
        "longitude": "-103.4213155"
    },
    {
        "name": "Pontevedra",
        "zipcode": "45116",
        "sepomexId": "56608",
        "latitude": "20.713573",
        "longitude": "-103.411806"
    },
    {
        "name": "Porta Real",
        "zipcode": "45019",
        "sepomexId": "56471",
        "latitude": "20.6786008",
        "longitude": "-103.398787"
    },
    {
        "name": "Praderas de San Antonio",
        "zipcode": "45138",
        "sepomexId": "56739",
        "latitude": "20.7673649",
        "longitude": "-103.4562345"
    },
    {
        "name": "Praderas de Tesistán",
        "zipcode": "45200",
        "sepomexId": "183403",
        "latitude": "20.8016245",
        "longitude": "-103.4791946"
    },
    {
        "name": "Praderas del Centinela",
        "zipcode": "45133",
        "sepomexId": "183336",
        "latitude": "20.7650122",
        "longitude": "-103.386092"
    },
    {
        "name": "Prados de Guadalupe",
        "zipcode": "45030",
        "sepomexId": "56490",
        "latitude": "20.6627503",
        "longitude": "-103.4202044"
    },
    {
        "name": "Prados de Nextipac",
        "zipcode": "45200",
        "sepomexId": "183404",
        "latitude": "20.789958",
        "longitude": "-103.5071878"
    },
    {
        "name": "Prados de San Ignacio",
        "zipcode": "45158",
        "sepomexId": "56781",
        "latitude": "20.6710257",
        "longitude": "-103.404514"
    },
    {
        "name": "Prados Del Ixtepete",
        "zipcode": "45236",
        "sepomexId": "56973",
        "latitude": "20.6225629",
        "longitude": "-103.4158195"
    },
    {
        "name": "Prados Santa Lucia",
        "zipcode": "45200",
        "sepomexId": "56933",
        "latitude": "20.7262532",
        "longitude": "-103.3830009"
    },
    {
        "name": "Prados Tepeyac",
        "zipcode": "45050",
        "sepomexId": "56522",
        "latitude": "20.6569105",
        "longitude": "-103.4128895"
    },
    {
        "name": "Prados Vallarta",
        "zipcode": "45020",
        "sepomexId": "56479",
        "latitude": "20.6755494",
        "longitude": "-103.4172233"
    },
    {
        "name": "Primavera Norte",
        "zipcode": "45058",
        "sepomexId": "56537",
        "latitude": "20.6536941",
        "longitude": "-103.4282392"
    },
    {
        "name": "Privanza de la Ceiba",
        "zipcode": "45200",
        "sepomexId": "183421",
        "latitude": "20.8151322",
        "longitude": "-103.4780204"
    },
    {
        "name": "Puerta Aqua",
        "zipcode": "45116",
        "sepomexId": "183332",
        "latitude": "20.7035836",
        "longitude": "-103.422903"
    },
    {
        "name": "Puerta de Hierro",
        "zipcode": "45116",
        "sepomexId": "56610",
        "latitude": "20.7155297",
        "longitude": "-103.4193903"
    },
    {
        "name": "Puerta del Bosque",
        "zipcode": "45066",
        "sepomexId": "56555",
        "latitude": "20.7002561",
        "longitude": "-103.418668"
    },
    {
        "name": "Puerta del Bosque",
        "zipcode": "45116",
        "sepomexId": "183333",
        "latitude": "20.7002561",
        "longitude": "-103.418668"
    },
    {
        "name": "Puerta del Llano",
        "zipcode": "45200",
        "sepomexId": "56910",
        "latitude": "25.9534725",
        "longitude": "-105.3685392"
    },
    {
        "name": "Puerta Del Roble",
        "zipcode": "45116",
        "sepomexId": "56612",
        "latitude": "20.6927795",
        "longitude": "-103.4255303"
    },
    {
        "name": "Puerta del Sol",
        "zipcode": "45117",
        "sepomexId": "56613",
        "latitude": "20.7050965",
        "longitude": "-103.4189045"
    },
    {
        "name": "Puerta del Valle",
        "zipcode": "45136",
        "sepomexId": "56703",
        "latitude": "20.724849",
        "longitude": "-103.4215573"
    },
    {
        "name": "Puerta las Lomas",
        "zipcode": "45115",
        "sepomexId": "183324",
        "latitude": "20.7123507",
        "longitude": "-103.4399453"
    },
    {
        "name": "Puerta Laurel",
        "zipcode": "45138",
        "sepomexId": "183384",
        "latitude": "20.757752",
        "longitude": "-103.4398767"
    },
    {
        "name": "Puerta Plata",
        "zipcode": "45116",
        "sepomexId": "56609",
        "latitude": "20.7060963",
        "longitude": "-103.418668"
    },
    {
        "name": "Puerta Real",
        "zipcode": "45136",
        "sepomexId": "56709",
        "latitude": "20.6786008",
        "longitude": "-103.398787"
    },
    {
        "name": "Puerta Serena",
        "zipcode": "45134",
        "sepomexId": "183359",
        "latitude": "20.7758152",
        "longitude": "-103.4332507"
    },
    {
        "name": "Puertas Del Tule",
        "zipcode": "45017",
        "sepomexId": "56464",
        "latitude": "20.6779153",
        "longitude": "-103.410536"
    },
    {
        "name": "Punta Centinela",
        "zipcode": "45133",
        "sepomexId": "183343",
        "latitude": "20.7572939",
        "longitude": "-103.383702"
    },
    {
        "name": "Punta Valdepeñas 1",
        "zipcode": "45130",
        "sepomexId": "56646",
        "latitude": "20.7441326",
        "longitude": "-103.398879"
    },
    {
        "name": "Punta Valdepeñas 2",
        "zipcode": "45130",
        "sepomexId": "56645",
        "latitude": "20.7440465",
        "longitude": "-103.3989046"
    },
    {
        "name": "Quinta Del Federalismo",
        "zipcode": "45180",
        "sepomexId": "56841",
        "latitude": "20.6883063",
        "longitude": "-103.3539577"
    },
    {
        "name": "Quintas del Bosque",
        "zipcode": "45187",
        "sepomexId": "56861",
        "latitude": "20.6793163",
        "longitude": "-103.3754634"
    },
    {
        "name": "Rancho Contento",
        "zipcode": "45222",
        "sepomexId": "56952",
        "latitude": "20.712975",
        "longitude": "-103.4793579"
    },
    {
        "name": "Real Cantabria",
        "zipcode": "45134",
        "sepomexId": "183356",
        "latitude": "20.7689051",
        "longitude": "-103.4270478"
    },
    {
        "name": "Real Casa Blanca",
        "zipcode": "45200",
        "sepomexId": "56912",
        "latitude": "20.7846957",
        "longitude": "-103.471464"
    },
    {
        "name": "Real de las Lomas",
        "zipcode": "45200",
        "sepomexId": "183405",
        "latitude": "20.7121834",
        "longitude": "-103.4391138"
    },
    {
        "name": "Real de Tesistán",
        "zipcode": "45200",
        "sepomexId": "56935",
        "latitude": "20.7528052",
        "longitude": "-103.4314669"
    },
    {
        "name": "Real de Valdepeñas",
        "zipcode": "45130",
        "sepomexId": "56655",
        "latitude": "20.7473835",
        "longitude": "-103.3982039"
    },
    {
        "name": "Real de Valdepeñas II",
        "zipcode": "45133",
        "sepomexId": "183339",
        "latitude": "20.7618925",
        "longitude": "-103.4010887"
    },
    {
        "name": "Real Del Bosque",
        "zipcode": "45130",
        "sepomexId": "56644",
        "latitude": "20.7505456",
        "longitude": "-103.3926538"
    },
    {
        "name": "Real del Camichin",
        "zipcode": "45130",
        "sepomexId": "56640",
        "latitude": "20.6485655",
        "longitude": "-103.4406829"
    },
    {
        "name": "Real del Carmen",
        "zipcode": "45136",
        "sepomexId": "183373",
        "latitude": "20.7380106",
        "longitude": "-103.4301731"
    },
    {
        "name": "Real del Carmen Grand",
        "zipcode": "45136",
        "sepomexId": "183375",
        "latitude": "20.7380106",
        "longitude": "-103.4301731"
    },
    {
        "name": "Real Del Parque",
        "zipcode": "45138",
        "sepomexId": "56713",
        "latitude": "20.7155922",
        "longitude": "-103.4139729"
    },
    {
        "name": "Real San Bernardo",
        "zipcode": "45110",
        "sepomexId": "56603",
        "latitude": "20.7043102",
        "longitude": "-103.4089169"
    },
    {
        "name": "Real Vallarta",
        "zipcode": "45020",
        "sepomexId": "56480",
        "latitude": "20.67644",
        "longitude": "-103.4244467"
    },
    {
        "name": "Residencial Albaterra",
        "zipcode": "45200",
        "sepomexId": "183435",
        "latitude": "20.8477744",
        "longitude": "-103.4464368"
    },
    {
        "name": "Residencial Ave del Paraíso",
        "zipcode": "45133",
        "sepomexId": "183354",
        "latitude": "20.7512495",
        "longitude": "-103.3891022"
    },
    {
        "name": "Residencial Cordilleras",
        "zipcode": "45039",
        "sepomexId": "56509",
        "latitude": "20.6779153",
        "longitude": "-103.410536"
    },
    {
        "name": "Residencial Del Parque",
        "zipcode": "45018",
        "sepomexId": "56465",
        "latitude": "20.6726084",
        "longitude": "-103.436005"
    },
    {
        "name": "Residencial del Valle",
        "zipcode": "45136",
        "sepomexId": "183374",
        "latitude": "20.7393295",
        "longitude": "-103.4276974"
    },
    {
        "name": "Residencial el Bosque",
        "zipcode": "45237",
        "sepomexId": "183445",
        "latitude": "20.6743111",
        "longitude": "-103.462115"
    },
    {
        "name": "Residencial Haciendas Guadalupe",
        "zipcode": "45036",
        "sepomexId": "56497",
        "latitude": "20.6548961",
        "longitude": "-103.4380479"
    },
    {
        "name": "Residencial La Peña",
        "zipcode": "45066",
        "sepomexId": "56551",
        "latitude": "20.6384926",
        "longitude": "-103.4359116"
    },
    {
        "name": "Residencial Loma Bonita",
        "zipcode": "45088",
        "sepomexId": "56591",
        "latitude": "20.6779153",
        "longitude": "-103.410536"
    },
    {
        "name": "Residencial Los Cedros",
        "zipcode": "45133",
        "sepomexId": "183346",
        "latitude": "20.6119189",
        "longitude": "-103.438707"
    },
    {
        "name": "Residencial los Frailes",
        "zipcode": "45140",
        "sepomexId": "56755",
        "latitude": "20.7234028",
        "longitude": "-103.4161103"
    },
    {
        "name": "Residencial Militar",
        "zipcode": "45138",
        "sepomexId": "56730",
        "latitude": "20.6244542",
        "longitude": "-103.4716449"
    },
    {
        "name": "Residencial Moctezuma",
        "zipcode": "45059",
        "sepomexId": "56539",
        "latitude": "20.650149",
        "longitude": "-103.4228676"
    },
    {
        "name": "Residencial Moctezuma Poniente",
        "zipcode": "45059",
        "sepomexId": "183312",
        "latitude": "20.6493637",
        "longitude": "-103.4345602"
    },
    {
        "name": "Residencial Parque Virreyes",
        "zipcode": "45115",
        "sepomexId": "183327",
        "latitude": "20.6977753",
        "longitude": "-103.4403565"
    },
    {
        "name": "Residencial Parques de Tesistán III",
        "zipcode": "45200",
        "sepomexId": "56915",
        "latitude": "20.7338719",
        "longitude": "-103.4070463"
    },
    {
        "name": "Residencial Patria",
        "zipcode": "45160",
        "sepomexId": "56789",
        "latitude": "20.7120146",
        "longitude": "-103.3967705"
    },
    {
        "name": "Residencial Plaza Guadalupe",
        "zipcode": "45030",
        "sepomexId": "183309",
        "latitude": "20.6552033",
        "longitude": "-103.4345602"
    },
    {
        "name": "Residencial Poniente",
        "zipcode": "45136",
        "sepomexId": "56702",
        "latitude": "20.7286584",
        "longitude": "-103.428781"
    },
    {
        "name": "Residencial San Isidro",
        "zipcode": "45135",
        "sepomexId": "56698",
        "latitude": "20.5915875",
        "longitude": "-103.4339237"
    },
    {
        "name": "Residencial Santa Fe",
        "zipcode": "45138",
        "sepomexId": "56745",
        "latitude": "20.735582",
        "longitude": "-103.4171359"
    },
    {
        "name": "Residencial Tabachines",
        "zipcode": "45188",
        "sepomexId": "56871",
        "latitude": "20.6270858",
        "longitude": "-103.4025732"
    },
    {
        "name": "Residencial Tepeyac del Sol",
        "zipcode": "45053",
        "sepomexId": "183311",
        "latitude": "20.6517975",
        "longitude": "-103.437405"
    },
    {
        "name": "Residencial Tesistán",
        "zipcode": "45200",
        "sepomexId": "183406",
        "latitude": "20.8058975",
        "longitude": "-103.4811645"
    },
    {
        "name": "Residencial Victoria",
        "zipcode": "45089",
        "sepomexId": "56592",
        "latitude": "20.6446794",
        "longitude": "-103.4013333"
    },
    {
        "name": "Revolución",
        "zipcode": "45200",
        "sepomexId": "56925",
        "latitude": "20.729669",
        "longitude": "-103.3368452"
    },
    {
        "name": "Rinconada Auditorio",
        "zipcode": "45180",
        "sepomexId": "56830",
        "latitude": "20.7187777",
        "longitude": "-103.3487358"
    },
    {
        "name": "Rinconada de La Calma",
        "zipcode": "45080",
        "sepomexId": "56584",
        "latitude": "20.6350988",
        "longitude": "-103.4141381"
    },
    {
        "name": "Rinconada de Las Arboledas",
        "zipcode": "45236",
        "sepomexId": "56968",
        "latitude": "20.7143503",
        "longitude": "-103.4510597"
    },
    {
        "name": "Rinconada de las Azaleas",
        "zipcode": "45158",
        "sepomexId": "56776",
        "latitude": "20.6086315",
        "longitude": "-103.4479224"
    },
    {
        "name": "Rinconada de los Belenes",
        "zipcode": "45188",
        "sepomexId": "56872",
        "latitude": "20.7506163",
        "longitude": "-103.3733946"
    },
    {
        "name": "Rinconada de Los Fresnos",
        "zipcode": "45138",
        "sepomexId": "56719",
        "latitude": "20.7490857",
        "longitude": "-103.3860851"
    },
    {
        "name": "Rinconada de los Novelistas",
        "zipcode": "45027",
        "sepomexId": "56482",
        "latitude": "20.6836194",
        "longitude": "-103.4278397"
    },
    {
        "name": "Rinconada de Los Sauces",
        "zipcode": "45187",
        "sepomexId": "56863",
        "latitude": "20.752858",
        "longitude": "-103.3856113"
    },
    {
        "name": "Rinconada del Aire",
        "zipcode": "45138",
        "sepomexId": "183380",
        "latitude": "20.750486",
        "longitude": "-103.4406887"
    },
    {
        "name": "Rinconada Del Álamo",
        "zipcode": "45012",
        "sepomexId": "56455",
        "latitude": "20.6792126",
        "longitude": "-103.3931782"
    },
    {
        "name": "Rinconada Del Iris",
        "zipcode": "45239",
        "sepomexId": "56989",
        "latitude": "20.6069801",
        "longitude": "-103.4512995"
    },
    {
        "name": "Rinconada del Mirador",
        "zipcode": "45133",
        "sepomexId": "56674",
        "latitude": "20.7549583",
        "longitude": "-103.3665983"
    },
    {
        "name": "Rinconada Del Parque",
        "zipcode": "45010",
        "sepomexId": "56441",
        "latitude": "20.7152617",
        "longitude": "-103.4130231"
    },
    {
        "name": "Rinconada Del Sol",
        "zipcode": "45055",
        "sepomexId": "56529",
        "latitude": "20.6576019",
        "longitude": "-103.4521289"
    },
    {
        "name": "Rinconada Del Sol Por Zona Arqueológica Ixtepec",
        "zipcode": "45079",
        "sepomexId": "56575",
        "latitude": "20.7166667",
        "longitude": "-103.4"
    },
    {
        "name": "Rinconada Del Valle",
        "zipcode": "45047",
        "sepomexId": "56516",
        "latitude": "20.7450617",
        "longitude": "-103.4275955"
    },
    {
        "name": "Rinconada Guadalupe",
        "zipcode": "45030",
        "sepomexId": "56493",
        "latitude": "20.6619357",
        "longitude": "-103.4264941"
    },
    {
        "name": "Rinconada La Joya",
        "zipcode": "45087",
        "sepomexId": "56588",
        "latitude": "24.0027364",
        "longitude": "-104.6573168"
    },
    {
        "name": "Rinconada Lopez Cotilla",
        "zipcode": "45157",
        "sepomexId": "56770",
        "latitude": "20.7312481",
        "longitude": "-103.3880693"
    },
    {
        "name": "Rinconada San Isidro",
        "zipcode": "45180",
        "sepomexId": "56840",
        "latitude": "20.7267024",
        "longitude": "-103.3791128"
    },
    {
        "name": "Rinconada Santa Catalina",
        "zipcode": "45058",
        "sepomexId": "56535",
        "latitude": "20.7274904",
        "longitude": "-103.4126771"
    },
    {
        "name": "Rinconada Santa Rita",
        "zipcode": "45120",
        "sepomexId": "56629",
        "latitude": "20.6670466",
        "longitude": "-103.4071202"
    },
    {
        "name": "Rinconadas de las Palmas",
        "zipcode": "45130",
        "sepomexId": "56661",
        "latitude": "20.6840769",
        "longitude": "-103.4498518"
    },
    {
        "name": "Rinconadas de Zapopan",
        "zipcode": "45138",
        "sepomexId": "183379",
        "latitude": "20.7609696",
        "longitude": "-103.4433104"
    },
    {
        "name": "Rinconadas del Valle",
        "zipcode": "45136",
        "sepomexId": "56706",
        "latitude": "20.7450617",
        "longitude": "-103.4275955"
    },
    {
        "name": "Rinconadas Tabachines",
        "zipcode": "45188",
        "sepomexId": "56868",
        "latitude": "20.6207194",
        "longitude": "-103.4059677"
    },
    {
        "name": "Rio Blanco",
        "zipcode": "45134",
        "sepomexId": "56685",
        "latitude": "20.7592018",
        "longitude": "-103.3888282"
    },
    {
        "name": "Roberto Orozco",
        "zipcode": "45200",
        "sepomexId": "56905",
        "latitude": "20.8052177",
        "longitude": "-103.4845589"
    },
    {
        "name": "Royal Country",
        "zipcode": "45116",
        "sepomexId": "56611",
        "latitude": "20.7086743",
        "longitude": "-103.423002"
    },
    {
        "name": "San Bernardo",
        "zipcode": "45110",
        "sepomexId": "56604",
        "latitude": "20.7048694",
        "longitude": "-103.4110837"
    },
    {
        "name": "San Esteban",
        "zipcode": "45205",
        "sepomexId": "56937",
        "latitude": "20.7775607",
        "longitude": "-103.3768792"
    },
    {
        "name": "San Esteban (San Miguel Tateposco)",
        "zipcode": "45205",
        "sepomexId": "183437",
        "latitude": "20.7987976",
        "longitude": "-103.3763672"
    },
    {
        "name": "San Francisco",
        "zipcode": "45130",
        "sepomexId": "56650",
        "latitude": "20.7261086",
        "longitude": "-103.4009722"
    },
    {
        "name": "San Francisco",
        "zipcode": "45140",
        "sepomexId": "183393",
        "latitude": "20.7261086",
        "longitude": "-103.4009722"
    },
    {
        "name": "San Francisco Ixcatan",
        "zipcode": "45200",
        "sepomexId": "56931",
        "latitude": "20.7166667",
        "longitude": "-103.4"
    },
    {
        "name": "San Francisco Tesistán",
        "zipcode": "45200",
        "sepomexId": "56932",
        "latitude": "20.7339434",
        "longitude": "-103.4070635"
    },
    {
        "name": "San Gilberto",
        "zipcode": "45158",
        "sepomexId": "56780",
        "latitude": "20.6690603",
        "longitude": "-103.4035489"
    },
    {
        "name": "San Isidro",
        "zipcode": "45135",
        "sepomexId": "56697",
        "latitude": "20.7267024",
        "longitude": "-103.3791128"
    },
    {
        "name": "San Isidro Ejidal",
        "zipcode": "45147",
        "sepomexId": "56758",
        "latitude": "20.7303804",
        "longitude": "-103.3977222"
    },
    {
        "name": "San José del Bajío",
        "zipcode": "45140",
        "sepomexId": "56754",
        "latitude": "20.7434284",
        "longitude": "-103.3803903"
    },
    {
        "name": "San José Ejidal",
        "zipcode": "45200",
        "sepomexId": "56909",
        "latitude": "20.5904165",
        "longitude": "-103.4242725"
    },
    {
        "name": "San Juan de Ocotan",
        "zipcode": "45019",
        "sepomexId": "56467",
        "latitude": "20.7096402",
        "longitude": "-103.4569571"
    },
    {
        "name": "San Miguel de La Cañada",
        "zipcode": "45150",
        "sepomexId": "56766",
        "latitude": "20.6868032",
        "longitude": "-103.4022342"
    },
    {
        "name": "San Miguel de La Colina",
        "zipcode": "45160",
        "sepomexId": "56786",
        "latitude": "20.7159019",
        "longitude": "-103.3868895"
    },
    {
        "name": "San Miguel Tateposco",
        "zipcode": "45205",
        "sepomexId": "56936",
        "latitude": "20.7166667",
        "longitude": "-103.4"
    },
    {
        "name": "San Nicolás de los Belenes",
        "zipcode": "45188",
        "sepomexId": "56870",
        "latitude": "20.6044844",
        "longitude": "-103.4500492"
    },
    {
        "name": "San Wenceslao",
        "zipcode": "45110",
        "sepomexId": "56596",
        "latitude": "20.6995934",
        "longitude": "-103.4085558"
    },
    {
        "name": "Santa Ana Tepetitlán",
        "zipcode": "45230",
        "sepomexId": "56956",
        "latitude": "20.6209699",
        "longitude": "-103.4565961"
    },
    {
        "name": "Santa Catalina",
        "zipcode": "45058",
        "sepomexId": "56533",
        "latitude": "20.7274904",
        "longitude": "-103.4126771"
    },
    {
        "name": "Santa Engracia",
        "zipcode": "45180",
        "sepomexId": "56819",
        "latitude": "20.7166667",
        "longitude": "-103.4"
    },
    {
        "name": "Santa Fe",
        "zipcode": "45168",
        "sepomexId": "56795",
        "latitude": "20.7154469",
        "longitude": "-103.3926668"
    },
    {
        "name": "Santa Isabel",
        "zipcode": "45110",
        "sepomexId": "56602",
        "latitude": "20.7061069",
        "longitude": "-103.409278"
    },
    {
        "name": "Santa Lucia",
        "zipcode": "45200",
        "sepomexId": "56920",
        "latitude": "20.5900186",
        "longitude": "-103.4329881"
    },
    {
        "name": "Santa Margarita",
        "zipcode": "45140",
        "sepomexId": "56750",
        "latitude": "20.7292407",
        "longitude": "-103.4121672"
    },
    {
        "name": "Santa Margarita Residencial",
        "zipcode": "45138",
        "sepomexId": "56741",
        "latitude": "20.7367579",
        "longitude": "-103.418668"
    },
    {
        "name": "Santa Maria Del Pueblito",
        "zipcode": "45018",
        "sepomexId": "56466",
        "latitude": "20.6799081",
        "longitude": "-103.436005"
    },
    {
        "name": "Santa Mónica de los Chorritos",
        "zipcode": "45200",
        "sepomexId": "56914",
        "latitude": "20.7166667",
        "longitude": "-103.4"
    },
    {
        "name": "Santa Paula",
        "zipcode": "45179",
        "sepomexId": "56809",
        "latitude": "20.7253581",
        "longitude": "-103.3641438"
    },
    {
        "name": "Santa Sofía Hacienda Country Club",
        "zipcode": "45221",
        "sepomexId": "56949",
        "latitude": "20.7166667",
        "longitude": "-103.4"
    },
    {
        "name": "Santillana Parque Residencial",
        "zipcode": "45019",
        "sepomexId": "138682",
        "latitude": "20.7194842",
        "longitude": "-103.4663154"
    },
    {
        "name": "Sauces",
        "zipcode": "45133",
        "sepomexId": "183347",
        "latitude": "20.763189",
        "longitude": "-103.3890559"
    },
    {
        "name": "Savia Jazmín",
        "zipcode": "45133",
        "sepomexId": "183353",
        "latitude": "20.7527263",
        "longitude": "-103.3894954"
    },
    {
        "name": "Savia Orquidea",
        "zipcode": "45133",
        "sepomexId": "183351",
        "latitude": "20.7522396",
        "longitude": "-103.3867089"
    },
    {
        "name": "Savia Tulipan",
        "zipcode": "45133",
        "sepomexId": "183350",
        "latitude": "20.7532209",
        "longitude": "-103.3881532"
    },
    {
        "name": "Seattle",
        "zipcode": "45150",
        "sepomexId": "56761",
        "latitude": "20.7173709",
        "longitude": "-103.3775019"
    },
    {
        "name": "Senda del Valle",
        "zipcode": "45200",
        "sepomexId": "56916",
        "latitude": "20.7450796",
        "longitude": "-103.427667"
    },
    {
        "name": "Sendas Residencial",
        "zipcode": "45134",
        "sepomexId": "183360",
        "latitude": "20.7802203",
        "longitude": "-103.4242906"
    },
    {
        "name": "Senderos de Tesistán",
        "zipcode": "45200",
        "sepomexId": "56919",
        "latitude": "20.7528052",
        "longitude": "-103.4314669"
    },
    {
        "name": "Sierra de Tapalpa",
        "zipcode": "45080",
        "sepomexId": "56582",
        "latitude": "20.6211437",
        "longitude": "-103.4110126"
    },
    {
        "name": "Soaré",
        "zipcode": "45019",
        "sepomexId": "183306",
        "latitude": "20.7259535",
        "longitude": "-103.4534573"
    },
    {
        "name": "Solares",
        "zipcode": "45019",
        "sepomexId": "56472",
        "latitude": "20.7256849",
        "longitude": "-103.4663505"
    },
    {
        "name": "Sotavento",
        "zipcode": "45133",
        "sepomexId": "183345",
        "latitude": "20.763189",
        "longitude": "-103.3890559"
    },
    {
        "name": "Sotopark",
        "zipcode": "45200",
        "sepomexId": "183429",
        "latitude": "20.7840756",
        "longitude": "-103.4759313"
    },
    {
        "name": "Tabachines",
        "zipcode": "45188",
        "sepomexId": "56867",
        "latitude": "20.7387242",
        "longitude": "-103.3659489"
    },
    {
        "name": "Tepeyac",
        "zipcode": "45150",
        "sepomexId": "56762",
        "latitude": "20.7256777",
        "longitude": "-103.3832788"
    },
    {
        "name": "Tepeyac Casino",
        "zipcode": "45047",
        "sepomexId": "56518",
        "latitude": "20.6596031",
        "longitude": "-103.4157787"
    },
    {
        "name": "Tierra, Aire y Fuego",
        "zipcode": "45200",
        "sepomexId": "56928",
        "latitude": "20.7166667",
        "longitude": "-103.4"
    },
    {
        "name": "U.A.G.",
        "zipcode": "45140",
        "sepomexId": "56753",
        "latitude": "20.7166667",
        "longitude": "-103.4"
    },
    {
        "name": "Unidad Abastos Belenes",
        "zipcode": "45140",
        "sepomexId": "56752",
        "latitude": "20.7312153",
        "longitude": "-103.3342905"
    },
    {
        "name": "Unidad Auditorio 1a Secc",
        "zipcode": "45180",
        "sepomexId": "56828",
        "latitude": "20.7172987",
        "longitude": "-103.3808979"
    },
    {
        "name": "Unidad Auditorio 2a Secc",
        "zipcode": "45180",
        "sepomexId": "56816",
        "latitude": "20.7167542",
        "longitude": "-103.3799944"
    },
    {
        "name": "Unidad Cadete Francisco Márquez",
        "zipcode": "45076",
        "sepomexId": "56571",
        "latitude": "20.6273167",
        "longitude": "-103.4717902"
    },
    {
        "name": "Unidad Díaz Ordaz",
        "zipcode": "45080",
        "sepomexId": "56579",
        "latitude": "24.0030264",
        "longitude": "-104.6591771"
    },
    {
        "name": "Unidad FOVISSSTE",
        "zipcode": "45149",
        "sepomexId": "56760",
        "latitude": "20.7177452",
        "longitude": "-103.381605"
    },
    {
        "name": "Unidad México",
        "zipcode": "45120",
        "sepomexId": "56631",
        "latitude": "20.7305981",
        "longitude": "-103.3547072"
    },
    {
        "name": "Unidad Patria",
        "zipcode": "45176",
        "sepomexId": "56805",
        "latitude": "20.7176852",
        "longitude": "-103.3814893"
    },
    {
        "name": "Unidad República",
        "zipcode": "45146",
        "sepomexId": "56757",
        "latitude": "20.7167542",
        "longitude": "-103.3799944"
    },
    {
        "name": "V Región Militar",
        "zipcode": "45138",
        "sepomexId": "183389",
        "latitude": "20.7437908",
        "longitude": "-103.4497318"
    },
    {
        "name": "Valentín Gómez Farias",
        "zipcode": "45013",
        "sepomexId": "56456",
        "latitude": "20.7386824",
        "longitude": "-103.3432981"
    },
    {
        "name": "Vallarta",
        "zipcode": "45012",
        "sepomexId": "183301",
        "latitude": "20.6840353",
        "longitude": "-103.4576796"
    },
    {
        "name": "Vallarta Cuauhtémoc",
        "zipcode": "45049",
        "sepomexId": "56520",
        "latitude": "20.6734872",
        "longitude": "-103.4016944"
    },
    {
        "name": "Vallarta La Patria",
        "zipcode": "45020",
        "sepomexId": "56477",
        "latitude": "20.6752078",
        "longitude": "-103.4215573"
    },
    {
        "name": "Vallarta Universidad",
        "zipcode": "45110",
        "sepomexId": "56597",
        "latitude": "20.687892",
        "longitude": "-103.4273362"
    },
    {
        "name": "Valle de Bugambilias",
        "zipcode": "45239",
        "sepomexId": "56990",
        "latitude": "20.6051799",
        "longitude": "-103.4485832"
    },
    {
        "name": "Valle de los Molinos",
        "zipcode": "45200",
        "sepomexId": "56930",
        "latitude": "20.7187777",
        "longitude": "-103.3487358"
    },
    {
        "name": "Valle de San Isidro",
        "zipcode": "45133",
        "sepomexId": "56663",
        "latitude": "20.7508337",
        "longitude": "-103.3883338"
    },
    {
        "name": "Valle de San Nicolás",
        "zipcode": "45066",
        "sepomexId": "56552",
        "latitude": "20.6279981",
        "longitude": "-103.4602086"
    },
    {
        "name": "Valle Esmeralda",
        "zipcode": "45138",
        "sepomexId": "56717",
        "latitude": "20.6309789",
        "longitude": "-103.471536"
    },
    {
        "name": "Valle Imperial",
        "zipcode": "45134",
        "sepomexId": "56687",
        "latitude": "20.7179896",
        "longitude": "-103.3645869"
    },
    {
        "name": "Valle Norte",
        "zipcode": "45200",
        "sepomexId": "183430",
        "latitude": "20.7875652",
        "longitude": "-103.4697113"
    },
    {
        "name": "Valle Real",
        "zipcode": "45019",
        "sepomexId": "56474",
        "latitude": "20.725383",
        "longitude": "-103.442507"
    },
    {
        "name": "Valles de Nuevo México (La Periquera)",
        "zipcode": "45134",
        "sepomexId": "183367",
        "latitude": "20.7683363",
        "longitude": "-103.4424429"
    },
    {
        "name": "Venustiano Carranza",
        "zipcode": "45180",
        "sepomexId": "56823",
        "latitude": "20.7239016",
        "longitude": "-103.3594508"
    },
    {
        "name": "Vicente Guerrero",
        "zipcode": "45134",
        "sepomexId": "56692",
        "latitude": "20.721493",
        "longitude": "-103.3943922"
    },
    {
        "name": "Victor Hugo",
        "zipcode": "45190",
        "sepomexId": "56887",
        "latitude": "20.725376",
        "longitude": "-103.3406803"
    },
    {
        "name": "Vigusa",
        "zipcode": "45120",
        "sepomexId": "56626",
        "latitude": "20.7166667",
        "longitude": "-103.4"
    },
    {
        "name": "Villa Atemajac",
        "zipcode": "45190",
        "sepomexId": "56888",
        "latitude": "20.7212289",
        "longitude": "-103.3646289"
    },
    {
        "name": "Villa Coral",
        "zipcode": "45169",
        "sepomexId": "56799",
        "latitude": "20.7195948",
        "longitude": "-103.4002499"
    },
    {
        "name": "Villa de los Belenes",
        "zipcode": "45157",
        "sepomexId": "56771",
        "latitude": "20.7506163",
        "longitude": "-103.3733946"
    },
    {
        "name": "Villa Fontana Diamante",
        "zipcode": "45200",
        "sepomexId": "183422",
        "latitude": "20.7769516",
        "longitude": "-103.4712628"
    },
    {
        "name": "Villa la Cima",
        "zipcode": "45110",
        "sepomexId": "183321",
        "latitude": "20.6921108",
        "longitude": "-103.427078"
    },
    {
        "name": "Villa Magna",
        "zipcode": "45169",
        "sepomexId": "56797",
        "latitude": "20.717016",
        "longitude": "-103.3959167"
    },
    {
        "name": "Villa Palma",
        "zipcode": "45169",
        "sepomexId": "56796",
        "latitude": "24.0030264",
        "longitude": "-104.6591771"
    },
    {
        "name": "Villa Panamericana",
        "zipcode": "45014",
        "sepomexId": "56457",
        "latitude": "20.6917651",
        "longitude": "-103.4706861"
    },
    {
        "name": "Villa Puerta Del Sol",
        "zipcode": "45058",
        "sepomexId": "56534",
        "latitude": "20.6517863",
        "longitude": "-103.426975"
    },
    {
        "name": "Villa San Jorge",
        "zipcode": "45160",
        "sepomexId": "56783",
        "latitude": "20.7155558",
        "longitude": "-103.3748179"
    },
    {
        "name": "Villa Serena",
        "zipcode": "45239",
        "sepomexId": "183449",
        "latitude": "20.6125452",
        "longitude": "-103.4453488"
    },
    {
        "name": "Villa Universitaria",
        "zipcode": "45110",
        "sepomexId": "56598",
        "latitude": "20.6939707",
        "longitude": "-103.4150564"
    },
    {
        "name": "Villa Verona",
        "zipcode": "45115",
        "sepomexId": "183328",
        "latitude": "20.7018997",
        "longitude": "-103.4450769"
    },
    {
        "name": "Villas Alcalde",
        "zipcode": "45190",
        "sepomexId": "56891",
        "latitude": "20.7183524",
        "longitude": "-103.3441093"
    },
    {
        "name": "Villas de Guadalupe",
        "zipcode": "45189",
        "sepomexId": "56876",
        "latitude": "20.6619357",
        "longitude": "-103.4264941"
    },
    {
        "name": "Villas de la Primavera",
        "zipcode": "45066",
        "sepomexId": "183314",
        "latitude": "20.6337936",
        "longitude": "-103.472312"
    },
    {
        "name": "Villas de Nuevo México",
        "zipcode": "45138",
        "sepomexId": "56727",
        "latitude": "20.7321504",
        "longitude": "-103.3972412"
    },
    {
        "name": "Villas de San Javier",
        "zipcode": "45120",
        "sepomexId": "56628",
        "latitude": "20.6770237",
        "longitude": "-103.4031389"
    },
    {
        "name": "Villas de Santa Lucía",
        "zipcode": "45200",
        "sepomexId": "183407",
        "latitude": "20.7998871",
        "longitude": "-103.5026655"
    },
    {
        "name": "Villas de Tesistán",
        "zipcode": "45200",
        "sepomexId": "56921",
        "latitude": "20.7528052",
        "longitude": "-103.4314669"
    },
    {
        "name": "Villas de Torremolinos",
        "zipcode": "45130",
        "sepomexId": "56643",
        "latitude": "20.7504095",
        "longitude": "-103.399481"
    },
    {
        "name": "Villas de Vallarta",
        "zipcode": "45016",
        "sepomexId": "56461",
        "latitude": "20.6847616",
        "longitude": "-103.4285814"
    },
    {
        "name": "Villas de Zapopan",
        "zipcode": "45130",
        "sepomexId": "56641",
        "latitude": "20.7409015",
        "longitude": "-103.337685"
    },
    {
        "name": "Villas del Bosque",
        "zipcode": "45160",
        "sepomexId": "56787",
        "latitude": "20.6103942",
        "longitude": "-103.45396"
    },
    {
        "name": "Villas Del Centinela",
        "zipcode": "45187",
        "sepomexId": "56866",
        "latitude": "20.7651268",
        "longitude": "-103.3669039"
    },
    {
        "name": "Villas Del Iztepete",
        "zipcode": "45236",
        "sepomexId": "56971",
        "latitude": "20.6220095",
        "longitude": "-103.4435907"
    },
    {
        "name": "Villas Del Marques",
        "zipcode": "45180",
        "sepomexId": "56820",
        "latitude": "20.6993684",
        "longitude": "-103.4072395"
    },
    {
        "name": "Villas Del Mirador",
        "zipcode": "45133",
        "sepomexId": "56668",
        "latitude": "20.7669151",
        "longitude": "-103.3272267"
    },
    {
        "name": "Villas Del Tepeyac",
        "zipcode": "45058",
        "sepomexId": "56536",
        "latitude": "20.6540332",
        "longitude": "-103.4262526"
    },
    {
        "name": "Villas Del Valle",
        "zipcode": "45134",
        "sepomexId": "56693",
        "latitude": "20.7450617",
        "longitude": "-103.4275955"
    },
    {
        "name": "Villas Esmeralda",
        "zipcode": "45239",
        "sepomexId": "183447",
        "latitude": "20.610353",
        "longitude": "-103.4527508"
    },
    {
        "name": "Villas La Loma",
        "zipcode": "45134",
        "sepomexId": "56682",
        "latitude": "20.7289541",
        "longitude": "-103.3469466"
    },
    {
        "name": "Villas Mariano Otero",
        "zipcode": "45066",
        "sepomexId": "56545",
        "latitude": "20.6002802",
        "longitude": "-103.4460818"
    },
    {
        "name": "Villas Perisur",
        "zipcode": "45236",
        "sepomexId": "56972",
        "latitude": "20.6248722",
        "longitude": "-103.4443132"
    },
    {
        "name": "Virreyes Residencial",
        "zipcode": "45110",
        "sepomexId": "56605",
        "latitude": "20.6779153",
        "longitude": "-103.410536"
    },
    {
        "name": "Vista Hermosa",
        "zipcode": "45189",
        "sepomexId": "56881",
        "latitude": "20.7595336",
        "longitude": "-103.3334617"
    },
    {
        "name": "Vista Magna",
        "zipcode": "45117",
        "sepomexId": "183334",
        "latitude": "20.6931881",
        "longitude": "-103.4321144"
    },
    {
        "name": "Vista Sur Residencial",
        "zipcode": "45135",
        "sepomexId": "183369",
        "latitude": "20.7736129",
        "longitude": "-103.3973846"
    },
    {
        "name": "Vista Zapopan",
        "zipcode": "45200",
        "sepomexId": "183428",
        "latitude": "20.7854386",
        "longitude": "-103.487648"
    },
    {
        "name": "Vistas de Tesistán",
        "zipcode": "45200",
        "sepomexId": "183408",
        "latitude": "20.8149879",
        "longitude": "-103.4872708"
    },
    {
        "name": "Vistas Del Centinela",
        "zipcode": "45187",
        "sepomexId": "56858",
        "latitude": "20.7651268",
        "longitude": "-103.3669039"
    },
    {
        "name": "Vistas Del Pinar",
        "zipcode": "45010",
        "sepomexId": "56451",
        "latitude": "20.6779153",
        "longitude": "-103.410536"
    },
    {
        "name": "Vistas del Sol",
        "zipcode": "45237",
        "sepomexId": "56981",
        "latitude": "20.6109295",
        "longitude": "-103.4593865"
    },
    {
        "name": "Vistas del Tule I",
        "zipcode": "45115",
        "sepomexId": "183330",
        "latitude": "20.6947368",
        "longitude": "-103.4415664"
    },
    {
        "name": "Vistas del Tule II",
        "zipcode": "45115",
        "sepomexId": "183331",
        "latitude": "20.6950604",
        "longitude": "-103.4428682"
    },
    {
        "name": "Vitana Residencial",
        "zipcode": "45133",
        "sepomexId": "183340",
        "latitude": "20.7671584",
        "longitude": "-103.4067763"
    },
    {
        "name": "Viveros del Valle",
        "zipcode": "45138",
        "sepomexId": "56747",
        "latitude": "20.7485277",
        "longitude": "-103.436005"
    },
    {
        "name": "Volcán Del Colli",
        "zipcode": "45010",
        "sepomexId": "56448",
        "latitude": "20.6638259",
        "longitude": "-103.4547895"
    },
    {
        "name": "Zapopan Centro",
        "zipcode": "45100",
        "sepomexId": "56595",
        "latitude": "20.7220746",
        "longitude": "-103.3919446"
    },
    {
        "name": "Zapopan Industrial Norte",
        "zipcode": "45130",
        "sepomexId": "56659",
        "latitude": "20.7625654",
        "longitude": "-103.3914758"
    },
    {
        "name": "Zoi Cañadas",
        "zipcode": "45133",
        "sepomexId": "183338",
        "latitude": "20.7622311",
        "longitude": "-103.3854605"
    },
    {
        "name": "Zoquipan",
        "zipcode": "45170",
        "sepomexId": "56802",
        "latitude": "20.7170993",
        "longitude": "-103.3670319"
    },
    {
        "name": "Zotogrande",
        "zipcode": "45118",
        "sepomexId": "56621",
        "latitude": "20.7156545",
        "longitude": "-103.4085558"
    }
]
